OBJECTID,Type,Provider,Location,Latitude,Longitude,X,Y,Location_T,City,Borough_Name,Neighborhood_Tabulation_Area_Code,Neighborhood_Tabulation_Area,Location_points
10604,Limited Free,SPECTRUM,Park Perimeter,40.67486,-73.78412,1044131.897,185219.8921,Outdoor TWC Aerial,Queens,Queens,QN02,Springfield Gardens North,"(40.6748599999, -73.7841200005)"
10555,Limited Free,SPECTRUM,Park Perimeter,40.74756,-73.81815,1034637.511,211685.2178,Outdoor TWC Aerial,Queens,Queens,QN22,Flushing,"(40.7475599996, -73.8181499997)"
12370,Free,Transit Wireless,Grand St (L),40.711926,-73.94067,1000698.128,198655.9088,Subway Station,Brooklyn,Brooklyn,BK90,East Williamsburg,"(40.7119259997, -73.9406699994)"
9893,Free,Downtown Brooklyn,125 Court St.,40.689985,-73.991995,986469.9663,190656.6804,Outdoor,Brooklyn,Brooklyn,BK09,Brooklyn Heights-Cobble Hill,"(40.6899850001, -73.9919950004)"
10169,Free,Transit Wireless,Lexington Av-63 St (F),40.76463,-73.966115,993636.5521,217853.8882,Subway Station,New York,Manhattan,MN40,Upper East Side-Carnegie Hill,"(40.7646300002, -73.9661150001)"
10880,Limited Free,SPECTRUM,Park Perimeter,40.74243,-73.81151,1036481.359,209820.0886,Outdoor TWC Aerial,Queens,Queens,QN62,Queensboro Hill,"(40.7424300003, -73.8115100003)"
10953,Free,Harlem,Pole 94 - LenWS1N133,40.812944,-73.941693,1000390.022,235459.8933,Outdoor,New York,Manhattan,MN03,Central Harlem North-Polo Grounds,"(40.812944, -73.9416929996)"
11018,Free,BPL,380 WASHINGTON AVENUE,40.68737909,-73.96603067,993670.8279,189708.9979,Library,Brooklyn,Brooklyn,BK69,Clinton Hill,"(40.6873790941, -73.966030666)"
12375,Free,Transit Wireless,Halsey St (L),40.695602,-73.904084,1010847.417,192717.5789,Subway Station,Brooklyn,Queens,QN20,Ridgewood,"(40.6956020001, -73.9040840004)"
12607,Free,Transit Wireless,"Broadway Junction (A,C,J,L,Z)",40.678334,-73.905316,1010512.585,186425.9753,Subway Station,Brooklyn,Brooklyn,BK79,Ocean Hill,"(40.6783340002, -73.9053160001)"
11726,Limited Free,ALTICEUSA,CROTONA PARK C/O EAST 173RD ST AND FULTON AVE,40.840664,-73.898372,1012370.032,245570.2432,Outdoor,Bronx,Bronx,BX01,Claremont-Bathgate,"(40.8406639999, -73.8983720002)"
9823,Free,Fiberless,Liggett B Food Court,40.69039,-74.01996,978714.6771,190804.7628,Outdoor,New York,Manhattan,MN99,Governors Island,"(40.6903899996, -74.0199599995)"
10915,Free,Harlem,pole 51n - 131NWC5th,40.81026,-73.93951,1000994.976,234482.4264,Outdoor,New York,Manhattan,MN03,Central Harlem North-Polo Grounds,"(40.81026, -73.9395100003)"
12084,Free,LinkNYC - Citybridge,181 Court Street,40.6879008,-73.99314691,986150.5753,189897.3184,Outdoor Kiosk,Brooklyn,Brooklyn,BK38,DUMBO-Vinegar Hill-Downtown Brooklyn-Boerum Hill,"(40.6879008003, -73.9931469103)"
12080,Free,LinkNYC - Citybridge,620 ATLANTIC AVENUE,40.683625,-73.977006,990627.3612,188340.2828,Outdoor Kiosk,Brooklyn,Brooklyn,BK37,Park Slope-Gowanus,"(40.6836250004, -73.9770060002)"
12500,Free,LinkNYC - Citybridge,19 SEAVIEW AVENUE,40.590983,-74.100732,956273.2804,154603.5435,Outdoor Kiosk,Staten Island,Staten Island,SI36,Old Town-Dongan Hills-South Beach,"(40.5909830002, -74.1007320003)"
9932,Free,BPL,8 THOMAS S BOYLAND STREET,40.68481005,-73.91513242,1007787.512,188782.5949,Library,Brooklyn,Brooklyn,BK79,Ocean Hill,"(40.6848100477, -73.915132416)"
10191,Free,LinkNYC - Citybridge,43-40 NORTHERN BOULEVARD,40.75364064,-73.91840166,1006857.448,213858.8191,Outdoor Kiosk,Queens,Queens,QN31,Hunters Point-Sunnyside-West Maspeth,"(40.7536406401, -73.9184016594)"
10390,Limited Free,ALTICEUSA,IN PARK BELOW PLAYGROUND AREA SOUTH SIDE,40.70254,-73.923816,1005373.555,195239.9222,Outdoor,Brooklyn,Brooklyn,BK77,Bushwick North,"(40.7025399998, -73.9238159997)"
11491,Free,LinkNYC - Citybridge,237 1 AVENUE,40.73121904,-73.982827,989009.5138,205679.8535,Outdoor Kiosk,New York,Manhattan,MN22,East Village,"(40.7312190398, -73.9828270001)"
10721,Free,LinkNYC - Citybridge,242 EAST 10 STREET,40.728824,-73.98468,988496.1057,204807.1705,Outdoor Kiosk,New York,Manhattan,MN22,East Village,"(40.728824, -73.9846799999)"
12228,Free,LinkNYC - Citybridge,203 3 AVENUE,40.735626,-73.985322,988317.753,207285.3214,Outdoor Kiosk,New York,Manhattan,MN21,Gramercy,"(40.7356259996, -73.9853220002)"
12237,Free,LinkNYC - Citybridge,323 3 AVENUE,40.739528,-73.982489,989102.5858,208707.0876,Outdoor Kiosk,New York,Manhattan,MN20,Murray Hill-Kips Bay,"(40.739528, -73.9824889997)"
10885,Free,LinkNYC - Citybridge,736 7 AVENUE,40.76023532,-73.98401196,988679.1716,216251.3504,Outdoor Kiosk,New York,Manhattan,MN17,Midtown-Midtown South,"(40.7602353199, -73.9840119597)"
11822,Free,LinkNYC - Citybridge,400 EAST 68 STREET,40.76511946,-73.95769383,995969.2311,218033.229,Outdoor Kiosk,New York,Manhattan,MN31,Lenox Hill-Roosevelt Island,"(40.7651194601, -73.9576938298)"
12730,Free,LinkNYC - Citybridge,170 2 AVENUE,40.730249,-73.986348,988033.7204,205326.2659,Outdoor Kiosk,New York,Manhattan,MN22,East Village,"(40.7302489998, -73.9863479994)"
12942,Free,LinkNYC - Citybridge,300 EAST 45 STREET,40.75163236,-73.97065717,992379.9027,213117.9698,Outdoor Kiosk,New York,Manhattan,MN19,Turtle Bay-East Midtown,"(40.7516323603, -73.9706571702)"
11144,Free,LinkNYC - Citybridge,84-43 CORONA AVENUE,40.73933161,-73.87812993,1018022.287,208658.5443,Outdoor Kiosk,Queens,Queens,QN50,Elmhurst-Maspeth,"(40.73933161, -73.8781299298)"
12632,Free,LinkNYC - Citybridge,2208 FULTON STREET,40.678079,-73.908374,1009664.482,186332.1694,Outdoor Kiosk,Brooklyn,Brooklyn,BK79,Ocean Hill,"(40.6780789998, -73.9083739999)"
10108,Free,Manhattan Down Alliance,"Downtown Manhattan Heliport, 6 East River Piers, New York, USA",40.7015991,-74.0093002,981671.2948,194888.0755,Outdoor,New York,Manhattan,MN25,Battery Park City-Lower Manhattan,"(40.7015990998, -74.0093001995)"
12369,Free,Transit Wireless,"7 Av (B,Q)",40.67705,-73.972367,991914.7386,185945.1925,Subway Station,Brooklyn,Brooklyn,BK64,Prospect Heights,"(40.67705, -73.9723670001)"
11053,Free,LinkNYC - Citybridge,42-02 30 AVENUE,40.763,-73.913259,1008278.884,217270.1068,Outdoor Kiosk,Queens,Queens,QN70,Astoria,"(40.7629999999, -73.9132590006)"
12286,Free,LinkNYC - Citybridge,3301 CHURCH AVE,40.65102676,-73.94651287,999091.8492,176467.5162,Outdoor Kiosk,Brooklyn,Brooklyn,BK95,Erasmus,"(40.6510267597, -73.9465128704)"
11459,Free,LinkNYC - Citybridge,504 6 AVENUE,40.73653988,-73.99715554,985038.2819,207617.9487,Outdoor Kiosk,New York,Manhattan,MN23,West Village,"(40.7365398796, -73.9971555402)"
12839,Free,LinkNYC - Citybridge,200 EAST 74 STREET,40.770946,-73.959496,995469.0304,220155.7946,Outdoor Kiosk,New York,Manhattan,MN31,Lenox Hill-Roosevelt Island,"(40.7709460001, -73.9594960004)"
9916,Free,BPL,7 WOLCOTT STREET,40.67525519,-74.01035129,981378.72,185290.2528,Library,Brooklyn,Brooklyn,BK33,Carroll Gardens-Columbia Street-Red Hook,"(40.6752551911, -74.0103512916)"
12712,Free,LinkNYC - Citybridge,725 Lexington Ave,40.76155923,-73.96839056,993006.5983,216734.8701,Outdoor Kiosk,New York,Manhattan,MN19,Turtle Bay-East Midtown,"(40.7615592304, -73.9683905603)"
10320,Free,LinkNYC - Citybridge,3368 FULTON STREET,40.68382059,-73.87137973,1019922.577,188436.8942,Outdoor Kiosk,Brooklyn,Brooklyn,BK83,Cypress Hills-City Line,"(40.6838205904, -73.8713797301)"
11112,Free,LinkNYC - Citybridge,2620 BRIGGS AVENUE,40.86487,-73.8928,1013900.988,254391.2442,Outdoor Kiosk,Bronx,Bronx,BX05,Bedford Park-Fordham North,"(40.8648700001, -73.8927999994)"
9652,Free,LinkNYC - Citybridge,378 3 AVENUE,40.74153614,-73.98133262,989422.8817,209438.7829,Outdoor Kiosk,New York,Manhattan,MN21,Gramercy,"(40.7415361403, -73.9813326198)"
12771,Free,LinkNYC - Citybridge,856 AMSTERDAM AVE,40.79782619,-73.96774773,993179.8132,229948.214,Outdoor Kiosk,New York,Manhattan,MN12,Upper West Side,"(40.7978261899, -73.9677477303)"
11085,Free,LinkNYC - Citybridge,2730 FREDERICK DOUGLASS BOULEVARD,40.822924,-73.941723,1000379.299,239095.9605,Outdoor Kiosk,New York,Manhattan,MN03,Central Harlem North-Polo Grounds,"(40.8229240001, -73.9417229998)"
10465,Limited Free,ALTICEUSA,IN PARK LEFT SIDE OF BASKETBNALL COURTS NORTH SIDE,40.703308,-73.924087,1005298.172,195519.6622,Outdoor,Brooklyn,Brooklyn,BK77,Bushwick North,"(40.7033079996, -73.9240869998)"
10661,Free,LinkNYC - Citybridge,2114 BROADWAY,40.78001947,-73.98139599,989402.3437,223459.5177,Outdoor Kiosk,New York,Manhattan,MN14,Lincoln Square,"(40.7800194697, -73.9813959896)"
12313,Free,LinkNYC - Citybridge,38-02 QUEENS BLVD,40.74387741,-73.92692611,1004498.651,210299.6766,Outdoor Kiosk,Queens,Queens,QN31,Hunters Point-Sunnyside-West Maspeth,"(40.74387741, -73.9269261104)"
10978,Free,AT&T,Amphitheater,40.8048,-73.9443,999670.2625,232492.2762,Outdoor,New York,Manhattan,MN34,East Harlem North,"(40.8048000002, -73.9443)"
12154,Free,LinkNYC - Citybridge,333 5 AVENUE,40.74762726,-73.98503716,988395.9448,211657.7752,Outdoor Kiosk,New York,Manhattan,MN17,Midtown-Midtown South,"(40.7476272599, -73.9850371596)"
12553,Free,LinkNYC - Citybridge,221 8 AVENUE,40.74426003,-73.99939787,984416.8484,210430.632,Outdoor Kiosk,New York,Manhattan,MN13,Hudson Yards-Chelsea-Flatiron-Union Square,"(40.7442600298, -73.9993978695)"
12564,Free,LinkNYC - Citybridge,300 West 57Th St,40.76663812,-73.98309182,988933.6278,218584.1492,Outdoor Kiosk,New York,Manhattan,MN15,Clinton,"(40.7666381202, -73.9830918204)"
10753,Limited Free,ALTICEUSA,BALCOM AV 2/P/N/O SAMPSON AV,40.818752,-73.82456,1032809.464,237619.2121,Outdoor,Bronx,Bronx,BX52,Schuylerville-Throgs Neck-Edgewater Park,"(40.818752, -73.82456)"
10047,Free,NYPL,524 MAIN STREET,40.76125337,-73.95016589,998055.3467,216625.783,Library,New York,Manhattan,MN31,Lenox Hill-Roosevelt Island,"(40.7612533724, -73.9501658898)"
12599,Free,LinkNYC - Citybridge,546 WEST 147 STREET,40.82758,-73.949288,998284.5553,240791.0083,Outdoor Kiosk,New York,Manhattan,MN04,Hamilton Heights,"(40.8275800002, -73.9492880002)"
10425,Free,Downtown Brooklyn,110 Livingston St.,40.690883,-73.989635,987124.4089,190983.9166,Outdoor,Brooklyn,Brooklyn,BK09,Brooklyn Heights-Cobble Hill,"(40.6908829998, -73.9896349995)"
12594,Free,Downtown Brooklyn,254 Flatbush Ave. Extension (pole),40.692723,-73.983025,988957.3557,191654.5688,Outdoor,Brooklyn,Brooklyn,BK38,DUMBO-Vinegar Hill-Downtown Brooklyn-Boerum Hill,"(40.6927230002, -73.9830250002)"
11935,Free,LinkNYC - Citybridge,685 Franklin Ave,40.675141,-73.956281,996376.9603,185251.5062,Outdoor Kiosk,Brooklyn,Brooklyn,BK61,Crown Heights North,"(40.6751409996, -73.9562809996)"
11474,Free,LinkNYC - Citybridge,2 WEST 53 STREET,40.76047373,-73.97609914,990871.2387,216338.7101,Outdoor Kiosk,New York,Manhattan,MN17,Midtown-Midtown South,"(40.7604737301, -73.9760991397)"
12468,Free,LinkNYC - Citybridge,301 WEST 109 STREET,40.803721,-73.967381,993280.5515,232095.9371,Outdoor Kiosk,New York,Manhattan,MN09,Morningside Heights,"(40.8037209997, -73.967381)"
12882,Free,LinkNYC - Citybridge,30 EAST KINGSBRIDGE ROAD,40.867038,-73.896537,1012866.419,255179.8877,Outdoor Kiosk,Bronx,Bronx,BX05,Bedford Park-Fordham North,"(40.8670379998, -73.8965369996)"
12441,Free,LinkNYC - Citybridge,214 WEST 96 STREET,40.79446154,-73.97157309,992121.0686,228721.9885,Outdoor Kiosk,New York,Manhattan,MN12,Upper West Side,"(40.7944615402, -73.9715730901)"
11225,Free,LinkNYC - Citybridge,32 EAST 50 STREET,40.75773384,-73.97543366,991055.8761,215340.5297,Outdoor Kiosk,New York,Manhattan,MN17,Midtown-Midtown South,"(40.7577338402, -73.9754336596)"
12805,Free,LinkNYC - Citybridge,110 Maiden Lane,40.70624185,-74.00624351,982518.9565,196579.493,Outdoor Kiosk,New York,Manhattan,MN25,Battery Park City-Lower Manhattan,"(40.7062418498, -74.0062435098)"
11437,Free,LinkNYC - Citybridge,31 EAST 26 STREET,40.74275953,-73.98641999,988013.0614,209884.2433,Outdoor Kiosk,New York,Manhattan,MN13,Hudson Yards-Chelsea-Flatiron-Union Square,"(40.7427595303, -73.9864199897)"
11286,Free,LinkNYC - Citybridge,1 ST LUKES PLACE,40.73025769,-74.00662855,982412.8642,205329.2065,Outdoor Kiosk,New York,Manhattan,MN23,West Village,"(40.7302576896, -74.0066285504)"
12405,Free,Transit Wireless,"Court St (M,R)/Borough Hall (2,3,4,5)",40.693219,-73.989998,987023.645,191834.9783,Subway Station,Brooklyn,Brooklyn,BK38,DUMBO-Vinegar Hill-Downtown Brooklyn-Boerum Hill,"(40.6932189996, -73.9899979996)"
11555,Limited Free,SPECTRUM,Amplitheater,40.805013,-73.944909,999501.6152,232569.7728,Indoor,New York,Manhattan,MN34,East Harlem North,"(40.8050129997, -73.9449089999)"
9770,Free,LinkNYC - Citybridge,613 WESTCHESTER AVENUE,40.81618821,-73.90991661,1009184.86,236649.325,Outdoor Kiosk,Bronx,Bronx,BX34,Melrose South-Mott Haven North,"(40.8161882102, -73.9099166103)"
12915,Free,LinkNYC - Citybridge,110-88 QUEENS BOULEVARD,40.718602,-73.838184,1029105.929,201124.0394,Outdoor Kiosk,Queens,Queens,QN17,Forest Hills,"(40.7186019996, -73.8381840006)"
12091,Free,LinkNYC - Citybridge,48 WEST FORDHAM ROAD,40.86264365,-73.90324404,1011013.115,253576.7357,Outdoor Kiosk,Bronx,Bronx,BX30,Kingsbridge Heights,"(40.8626436497, -73.9032440399)"
9634,Free,LinkNYC - Citybridge,26 EAST 84 STREET,40.77956091,-73.9599541,995340.7085,223294.437,Outdoor Kiosk,New York,Manhattan,MN40,Upper East Side-Carnegie Hill,"(40.7795609103, -73.9599541)"
12297,Free,LinkNYC - Citybridge,80-55 KEW GARDENS ROAD,40.71316697,-73.82980897,1031431.36,199148.2957,Outdoor Kiosk,Queens,Queens,QN60,Kew Gardens,"(40.7131669699, -73.8298089703)"
10794,Free,Transit Wireless,Central Av (M),40.799075,-73.951822,997588.9822,230405.2233,Subway Station,New York,Manhattan,MN11,Central Harlem South,"(40.7990749998, -73.9518220006)"
11631,Limited Free,SPECTRUM,Pier and South Seating Area,40.82059,-73.95969,995406.9721,238242.8015,Outdoor,New York,Manhattan,MN06,Manhattanville,"(40.8205899999, -73.9596899999)"
10648,Free,LinkNYC - Citybridge,1967 BROADWAY,40.77464584,-73.98239982,989124.7281,221501.666,Outdoor Kiosk,New York,Manhattan,MN14,Lincoln Square,"(40.77464584, -73.9823998204)"
11025,Free,LinkNYC - Citybridge,685 2 AVENUE,40.74686754,-73.97452006,991310.1319,211381.6577,Outdoor Kiosk,New York,Manhattan,MN20,Murray Hill-Kips Bay,"(40.7468675402, -73.9745200604)"
10094,Free,NYPL,310 East Kingsbridge Road,40.86298061,-73.89450289,1013430.807,253702.2928,Library,Bronx,Bronx,BX05,Bedford Park-Fordham North,"(40.8629806052, -73.8945028865)"
10208,Free,NYCHA,50 Monument Walk,40.695295,-73.9801032,989767.3905,192591.7947,Outdoor,Brooklyn,Brooklyn,BK68,Fort Greene,"(40.695295, -73.9801031998)"
10693,Free,LinkNYC - Citybridge,2321 BROADWAY,40.78724687,-73.97764565,990440.3209,226092.9485,Outdoor Kiosk,New York,Manhattan,MN12,Upper West Side,"(40.7872468703, -73.9776456494)"
9620,Free,LinkNYC - Citybridge,222 LEXINGTON AVENUE,40.74586329,-73.9802333,989727.1564,211015.3684,Outdoor Kiosk,New York,Manhattan,MN20,Murray Hill-Kips Bay,"(40.7458632901, -73.9802332999)"
9915,Free,NYPL,4355 KATONAH AVENUE,40.90043991,-73.867942,1020757.045,267360.1648,Library,Bronx,Bronx,BX62,Woodlawn-Wakefield,"(40.9004399098, -73.867942)"
10498,Free,Chelsea,10th between 15th and 16th,40.74319278,-74.00738776,982202.8436,210041.8831,Outdoor,New York,Manhattan,MN13,Hudson Yards-Chelsea-Flatiron-Union Square,"(40.7431927759, -74.0073877576)"
12643,Free,LinkNYC - Citybridge,63 5 AVENUE,40.6807318,-73.97744609,990505.5741,187286.1744,Outdoor Kiosk,Brooklyn,Brooklyn,BK37,Park Slope-Gowanus,"(40.6807317996, -73.9774460905)"
11353,Free,Transit Wireless,Times Square - 42nd Street,40.75529,-73.987495,987714.5209,214449.4521,Subway Station,New York,Manhattan,MN17,Midtown-Midtown South,"(40.75529, -73.9874950005)"
10192,Free,LinkNYC - Citybridge,35-12 35 AVENUE,40.75652086,-73.92521461,1004968.972,214906.4915,Outdoor Kiosk,Queens,Queens,QN70,Astoria,"(40.7565208602, -73.9252146106)"
12330,Free,LinkNYC - Citybridge,210 West 90st,40.79069,-73.974462,991321.5649,227347.6398,Outdoor Kiosk,New York,Manhattan,MN12,Upper West Side,"(40.7906900002, -73.9744619998)"
12221,Free,LinkNYC - Citybridge,155 East 38Th Street,40.74838329,-73.9763443,990804.5118,211933.752,Outdoor Kiosk,New York,Manhattan,MN20,Murray Hill-Kips Bay,"(40.7483832896, -73.9763442995)"
12814,Free,LinkNYC - Citybridge,166-01 JAMAICA AVENUE,40.70597143,-73.7937866,1041423.848,196548.206,Outdoor Kiosk,Queens,Queens,QN61,Jamaica,"(40.7059714299, -73.7937866001)"
12695,Free,LinkNYC - Citybridge,81 LEXINGTON AVENUE,40.741481,-73.983198,988905.9736,209418.5888,Outdoor Kiosk,New York,Manhattan,MN21,Gramercy,"(40.7414809996, -73.9831980002)"
9809,Limited Free,SPECTRUM,Library,40.824131,-73.942464,1000173.924,239535.5787,Indoor,New York,Manhattan,MN04,Hamilton Heights,"(40.8241309998, -73.9424640006)"
12340,Free,LinkNYC - Citybridge,2518 BROADWAY,40.79318087,-73.97264858,991823.4241,228255.3011,Outdoor Kiosk,New York,Manhattan,MN12,Upper West Side,"(40.7931808696, -73.9726485797)"
11645,Limited Free,SPECTRUM,North West side of Park,40.695077,-73.822817,1033383.043,192561.4348,Outdoor TWC Aerial,Queens,Queens,QN54,Richmond Hill,"(40.6950769996, -73.8228169995)"
12660,Free,LinkNYC - Citybridge,601 8 Avenue,40.7555,-73.991425,986625.7036,214525.8308,Outdoor Kiosk,New York,Manhattan,MN15,Clinton,"(40.7554999999, -73.9914250005)"
10935,Free,Harlem,pole 76 - 7ASEC133,40.81393,-73.944955,999486.8389,235818.5442,Outdoor,New York,Manhattan,MN03,Central Harlem North-Polo Grounds,"(40.8139300002, -73.9449549995)"
10258,Free,LinkNYC - Citybridge,101 NORTH 5 STREET,40.71765823,-73.96030116,995254.8123,200741.2577,Outdoor Kiosk,Brooklyn,Brooklyn,BK73,North Side-South Side,"(40.7176582282, -73.9603011562)"
12392,Free,Transit Wireless,"Euclid Av (A,C)",40.675377,-73.872106,1019725.639,185360.3593,Subway Station,Brooklyn,Brooklyn,BK82,East New York,"(40.675377, -73.8721059998)"
9759,Free,LinkNYC - Citybridge,51 EAST 26 STREET,40.74232206,-73.98538074,988301.067,209724.9054,Outdoor Kiosk,New York,Manhattan,MN13,Hudson Yards-Chelsea-Flatiron-Union Square,"(40.7423220602, -73.9853807405)"
11705,Limited Free,ALTICEUSA,ROOF OF ABE STARK ICE RINK-RIGHT SIDE FRONT,40.572675,-73.985618,988245.469,147917.7236,Outdoor,Brooklyn,Brooklyn,BK21,Seagate-Coney Island,"(40.5726749996, -73.9856179998)"
10483,Limited Free,ALTICEUSA,RESERVOIR OVAL E  2/P/S/O RESERVOIR PL,40.878445,-73.87548,1018684.58,259343.4827,Outdoor,Bronx,Bronx,BX43,Norwood,"(40.8784449997, -73.8754800001)"
11690,Limited Free,ALTICEUSA,ROOF OF AQUARIUM,40.573551,-73.977366,990537.8778,148237.3565,Outdoor,Brooklyn,Brooklyn,BK21,Seagate-Coney Island,"(40.5735509999, -73.9773659998)"
10240,Free,LinkNYC - Citybridge,47-43 VERNON BOULEVARD,40.74432049,-73.95348371,997139.5001,210456.0814,Outdoor Kiosk,Queens,Queens,QN31,Hunters Point-Sunnyside-West Maspeth,"(40.7443204903, -73.9534837102)"
10321,Free,LinkNYC - Citybridge,3386 FULTON STREET,40.68406084,-73.87053741,1020156.064,188524.768,Outdoor Kiosk,Brooklyn,Brooklyn,BK83,Cypress Hills-City Line,"(40.6840608397, -73.8705374096)"
10967,Free,Harlem,pole 09: 119C5av,40.802684,-73.945158,999433.2121,231721.1931,Outdoor,New York,Manhattan,MN11,Central Harlem South,"(40.8026839999, -73.9451580005)"
12589,Free,LinkNYC - Citybridge,3559 BROADWAY,40.82704355,-73.95022615,998025.0331,240595.4109,Outdoor Kiosk,New York,Manhattan,MN04,Hamilton Heights,"(40.8270435498, -73.9502261503)"
10064,Free,QPL,92-24 ROCKAWAY BOULEVARD,40.68086185,-73.84648873,1026827.93,187370.0577,Library,Ozone Park,Queens,QN56,Ozone Park,"(40.6808618482, -73.8464887284)"
9842,Limited Free,SPECTRUM,Admin Office,40.824131,-73.942464,1000173.924,239535.5787,Indoor,New York,Manhattan,MN04,Hamilton Heights,"(40.8241309998, -73.9424640006)"
9953,Free,QPL,25-01 JACKSON AVENUE,40.74706242,-73.94424368,999699.2444,211456.5489,Library,Long Island City,Queens,QN31,Hunters Point-Sunnyside-West Maspeth,"(40.7470624208, -73.9442436779)"
12308,Free,LinkNYC - Citybridge,59-40 QUEENS BOULEVARD,40.741288,-73.904656,1010670.685,209362.205,Outdoor Kiosk,Queens,Queens,QN63,Woodside,"(40.7412880001, -73.9046559997)"
12201,Free,LinkNYC - Citybridge,1284 1 AVENUE,40.76566545,-73.95740873,996048.1093,218232.1902,Outdoor Kiosk,New York,Manhattan,MN31,Lenox Hill-Roosevelt Island,"(40.7656654522, -73.9574087323)"
11401,Free,Transit Wireless,18th Street - 7th Avenue,40.74104,-73.997871,984839.9676,209257.4792,Subway Station,New York,Manhattan,MN13,Hudson Yards-Chelsea-Flatiron-Union Square,"(40.7410399998, -73.9978709994)"
11395,Free,Transit Wireless,149 St - Grand Concourse,40.81841,-73.926718,1004533.601,237454.4661,Subway Station,Bronx,Bronx,BX39,Mott Haven-Port Morris,"(40.81841, -73.9267179996)"
10412,Free,Harlem,42 West 120th Street_THAL (new),40.803786,-73.946159,999155.835,232122.5184,Outdoor,New York,Manhattan,MN11,Central Harlem South,"(40.8037859998, -73.9461589995)"
12905,Free,LinkNYC - Citybridge,2002 AMSTERDAM AVE,40.83424538,-73.94115905,1000532.612,243220.8578,Outdoor Kiosk,New York,Manhattan,MN36,Washington Heights South,"(40.8342453801, -73.9411590502)"
12538,Free,LinkNYC - Citybridge,916 7 AVENUE,40.766148,-73.979721,989867.3985,218405.7804,Outdoor Kiosk,New York,Manhattan,MN17,Midtown-Midtown South,"(40.7661480002, -73.9797210006)"
12910,Free,LinkNYC - Citybridge,36 NEVINS STREET,40.68745727,-73.98192018,989264.1307,189736.1704,Outdoor Kiosk,Brooklyn,Brooklyn,BK38,DUMBO-Vinegar Hill-Downtown Brooklyn-Boerum Hill,"(40.6874572699, -73.9819201796)"
12096,Free,LinkNYC - Citybridge,100 E Fordham Rd,40.86208577,-73.89952057,1012043.275,253374.638,Outdoor Kiosk,Bronx,Bronx,BX40,Fordham South,"(40.8620857697, -73.8995205706)"
10799,Free,Transit Wireless,East 143 St-St Mary's St (6),40.808719,-73.907657,1009813.183,233928.6779,Subway Station,Bronx,Bronx,BX39,Mott Haven-Port Morris,"(40.808719, -73.9076570006)"
12232,Free,LinkNYC - Citybridge,205 3 AVENUE,40.736214,-73.9849,988434.6662,207499.5683,Outdoor Kiosk,New York,Manhattan,MN21,Gramercy,"(40.736214, -73.9848999999)"
9772,Free,LinkNYC - Citybridge,623 HUDSON STREET,40.73827778,-74.00567121,982678.385,208251.1587,Outdoor Kiosk,New York,Manhattan,MN23,West Village,"(40.7382777799, -74.0056712102)"
9639,Free,LinkNYC - Citybridge,2926 FREDERICK DOUGLASS BOULEVARD,40.82900248,-73.93727923,1001607.613,241311.4216,Outdoor Kiosk,New York,Manhattan,MN03,Central Harlem North-Polo Grounds,"(40.8290024803, -73.9372792304)"
11542,Limited Free,SPECTRUM,Sr. Dinning Area,40.731675,-73.865607,1021496.883,205874.0798,Indoor,Queens,Queens,QN18,Rego Park,"(40.7316749998, -73.8656070003)"
11582,Limited Free,SPECTRUM,Rec Office #2,40.687191,-73.769559,1048159.074,189722.7056,Indoor,Queens,Queens,QN08,St. Albans,"(40.687191, -73.7695589996)"
12345,Free,LinkNYC - Citybridge,60 HENRY STREET,40.69934194,-73.99218679,986416.4747,194065.6848,Outdoor Kiosk,Brooklyn,Brooklyn,BK09,Brooklyn Heights-Cobble Hill,"(40.69934194, -73.9921867902)"
10988,Free,AT&T,Ferry Landing,40.703,-74.0168,979591.8919,195398.7749,Outdoor,New York,Manhattan,MN99,park-cemetery-etc-Manhattan,"(40.7029999997, -74.0167999996)"
11442,Free,LinkNYC - Citybridge,604 2 AVENUE,40.744154,-73.97619,990847.684,210392.8982,Outdoor Kiosk,New York,Manhattan,MN20,Murray Hill-Kips Bay,"(40.7441540003, -73.9761899997)"
11269,Free,LinkNYC - Citybridge,2373 BROADWAY,40.7887051,-73.97641054,990782.2018,226624.3211,Outdoor Kiosk,New York,Manhattan,MN12,Upper West Side,"(40.7887050997, -73.97641054)"
10812,Free,Transit Wireless,2 Av (F),40.723402,-73.989938,987039.0203,202831.5567,Subway Station,New York,Manhattan,MN22,East Village,"(40.7234019998, -73.989938)"
9695,Limited Free,ALTICEUSA,"NORTH BOAT HOUSE, ON THE LAWN ACROSS FROM M-200",40.661197,-73.965252,993890.5617,180170.1984,Outdoor,Brooklyn,Brooklyn,BK99,park-cemetery-etc-Brooklyn,"(40.6611970004, -73.9652520003)"
10273,Free,LinkNYC - Citybridge,33-20 30 AVENUE,40.76578525,-73.919173,1006639.66,218283.2994,Outdoor Kiosk,Queens,Queens,QN70,Astoria,"(40.765785254, -73.9191729969)"
10578,Limited Free,ALTICEUSA,HALL CEILING-2ND FL,40.811544,-73.914138,1008018.049,234956.1003,Indoor,Bronx,Bronx,BX39,Mott Haven-Port Morris,"(40.811544, -73.9141379999)"
10999,Free,NYPL,175 NORTH END AVENUE,40.71548815,-74.01621384,979755.2587,199948.5559,Library,New York,Manhattan,MN25,Battery Park City-Lower Manhattan,"(40.7154881544, -74.0162138359)"
9814,Free,AT&T,Entire Park,40.7148,-74.0028,983473.786,199697.4366,Outdoor,New York,Manhattan,MN24,SoHo-TriBeCa-Civic Center-Little Italy,"(40.7147999999, -74.0028000002)"
12144,Free,LinkNYC - Citybridge,1995 BROADWAY,40.77544328,-73.98236687,989133.796,221792.2018,Outdoor Kiosk,New York,Manhattan,MN14,Lincoln Square,"(40.7754432796, -73.9823668697)"
12567,Free,LinkNYC - Citybridge,302 WEST 37 STREET,40.75413992,-73.99233961,986372.3543,214030.2862,Outdoor Kiosk,New York,Manhattan,MN13,Hudson Yards-Chelsea-Flatiron-Union Square,"(40.7541399203, -73.99233961)"
11658,Limited Free,ALTICEUSA,FRNT OF HANDBALL COURTS,40.597585,-74.001112,983941.1899,156992.7359,Outdoor,Brooklyn,Brooklyn,BK27,Bath Beach,"(40.5975849999, -74.0011120005)"
9869,Free,Downtown Brooklyn,333 Adams St.,40.693636,-73.988347,987481.462,191986.9602,Outdoor,Brooklyn,Brooklyn,BK38,DUMBO-Vinegar Hill-Downtown Brooklyn-Boerum Hill,"(40.6936359997, -73.9883469996)"
11903,Free,LinkNYC - Citybridge,36-35 33 STREET,40.75418823,-73.92939864,1003810.489,214055.6769,Outdoor Kiosk,Queens,Queens,QN68,Queensbridge-Ravenswood-Long Island City,"(40.7541882302, -73.9293986402)"
10049,Free,NYPL,3025 CROSS BRONX EXPRESSWAY,40.82290357,-73.81909364,1034319.355,239134.8541,Library,Bronx,Bronx,BX52,Schuylerville-Throgs Neck-Edgewater Park,"(40.8229035714, -73.8190936365)"
10772,Free,Transit Wireless,"125 St (A,B,C,D)",40.811109,-73.952343,997442.3483,234789.5544,Subway Station,New York,Manhattan,MN09,Morningside Heights,"(40.8111090001, -73.9523430005)"
11369,Free,Transit Wireless,IND-E-J-Z-JAMAICA CENTER - PARSONS / ARCHER,40.702147,-73.801109,1039396.838,195150.1609,Subway Station,Queens,Queens,QN61,Jamaica,"(40.702147, -73.8011089995)"
10301,Free,LinkNYC - Citybridge,691 4 AVENUE,40.662189,-73.996017,985355.0358,180529.7246,Outdoor Kiosk,Brooklyn,Brooklyn,BK32,Sunset Park West,"(40.6621889998, -73.9960170003)"
11502,Limited Free,SPECTRUM,Along Boardwalk and Beach,40.578631,-74.076801,962915.7897,150096.6664,Outdoor,Staten Island,Staten Island,SI36,Old Town-Dongan Hills-South Beach,"(40.5786309996, -74.0768009998)"
11482,Free,LinkNYC - Citybridge,223 EAST 14 STREET,40.7329605,-73.98617294,988082.0832,206314.158,Outdoor Kiosk,New York,Manhattan,MN21,Gramercy,"(40.7329605004, -73.9861729396)"
10712,Free,LinkNYC - Citybridge,91 3 AVENUE,40.732039,-73.987938,987592.9539,205978.3542,Outdoor Kiosk,New York,Manhattan,MN22,East Village,"(40.7320389999, -73.9879380003)"
11188,Free,LinkNYC - Citybridge,30-01 STEINWAY STREET,40.76368606,-73.91505124,1007782.158,217519.5745,Outdoor Kiosk,Queens,Queens,QN70,Astoria,"(40.7636860602, -73.9150512395)"
12834,Free,LinkNYC - Citybridge,1180 3 AVENUE,40.76785489,-73.96225464,994705.4118,219029.2592,Outdoor Kiosk,New York,Manhattan,MN40,Upper East Side-Carnegie Hill,"(40.7678548897, -73.9622546401)"
10442,Limited Free,SPECTRUM,Parking lot and Tennis Courts,40.729869,-73.773841,1046931.389,205268.4409,Outdoor,Queens,Queens,QN99,park-cemetery-etc-Queens,"(40.729869, -73.7738410001)"
11469,Free,LinkNYC - Citybridge,653 10 AVENUE,40.76232841,-73.99364234,986011.2091,217013.5916,Outdoor Kiosk,New York,Manhattan,MN15,Clinton,"(40.7623284104, -73.9936423401)"
9970,Free,NYPL,2147 BARNES AVENUE,40.85487778,-73.86414358,1021832.851,250761.695,Library,Bronx,Bronx,BX49,Pelham Parkway,"(40.8548777848, -73.8641435801)"
10027,Free,BPL,2602 BATH AVENUE,40.59265313,-73.9886821,987393.2909,155196.1313,Library,Brooklyn,Brooklyn,BK29,Bensonhurst East,"(40.5926531297, -73.9886820957)"
12196,Free,LinkNYC - Citybridge,462 PARK AVENUE SOUTH,40.74533995,-73.98276825,989024.7844,210824.5505,Outdoor Kiosk,New York,Manhattan,MN17,Midtown-Midtown South,"(40.74533995, -73.9827682499)"
12372,Free,Transit Wireless,Jefferson St (L),40.706607,-73.922913,1005622.626,196721.8707,Subway Station,Brooklyn,Brooklyn,BK77,Bushwick North,"(40.7066070001, -73.9229129996)"
10625,Free,LinkNYC - Citybridge,1945 3 AVENUE,40.7922967,-73.94398813,999759.5149,227936.9438,Outdoor Kiosk,New York,Manhattan,MN33,East Harlem South,"(40.7922967001, -73.94398813)"
10525,Limited Free,SPECTRUM,Track & Field,40.720079,-73.949511,998245.4146,201624.7585,Outdoor,Brooklyn,Brooklyn,BK73,North Side-South Side,"(40.7200789997, -73.9495109998)"
11523,Free,Downtown Brooklyn,573 Fulton St. (Pole),40.689334,-73.981975,989248.7866,190419.9148,Outdoor,Brooklyn,Brooklyn,BK68,Fort Greene,"(40.6893339998, -73.9819749997)"
12722,Free,LinkNYC - Citybridge,488 MADISON AVENUE,40.75864931,-73.97514297,991136.3143,215674.0881,Outdoor Kiosk,New York,Manhattan,MN17,Midtown-Midtown South,"(40.7586493104, -73.9751429701)"
10918,Free,Harlem,pole 54: MavSEC128,40.807594,-73.939065,1001118.837,233511.1938,Outdoor,New York,Manhattan,MN03,Central Harlem North-Polo Grounds,"(40.8075940004, -73.939065)"
11808,Free,LinkNYC - Citybridge,128 MONTAGUE STREET,40.69472554,-73.9942271,985850.8413,192383.7498,Outdoor Kiosk,Brooklyn,Brooklyn,BK09,Brooklyn Heights-Cobble Hill,"(40.6947255403, -73.9942270995)"
11165,Free,LinkNYC - Citybridge,2710 FREDERICK DOUGLASS BLVD,40.82221486,-73.94223468,1000237.852,238837.5014,Outdoor Kiosk,New York,Manhattan,MN03,Central Harlem North-Polo Grounds,"(40.8222148602, -73.9422346805)"
12744,Free,LinkNYC - Citybridge,169 BOWERY,40.71990707,-73.99406649,985894.7572,201558.1416,Outdoor Kiosk,New York,Manhattan,MN27,Chinatown,"(40.7199070697, -73.9940664903)"
12675,Free,LinkNYC - Citybridge,891 8 AVENUE,40.764338,-73.984767,988469.7425,217746.0544,Outdoor Kiosk,New York,Manhattan,MN15,Clinton,"(40.7643380004, -73.9847670002)"
10857,Limited Free,ALTICEUSA,right center,40.827831,-73.922677,1005649.072,240887.8388,Outdoor,Bronx,Bronx,BX63,West Concourse,"(40.8278309999, -73.9226770005)"
11600,Limited Free,SPECTRUM,Building G - SE towards social affair area,40.643782,-74.102245,955875.5213,173840.0799,Outdoor,Staten Island,Staten Island,SI22,West New Brighton-New Brighton-St. George,"(40.6437820001, -74.1022450006)"
11614,Limited Free,SPECTRUM,Computer Resource Room,40.793669,-73.936816,1001745.095,228438.2712,Indoor,New York,Manhattan,MN34,East Harlem North,"(40.7936690002, -73.9368160005)"
10680,Free,LinkNYC - Citybridge,2245 BROADWAY,40.784712,-73.979564,989909.3108,225169.2787,Outdoor Kiosk,New York,Manhattan,MN12,Upper West Side,"(40.7847119996, -73.9795639995)"
11427,Free,LinkNYC - Citybridge,351 EAST 60 STREET,40.76035998,-73.96166314,994870.4515,216298.6879,Outdoor Kiosk,New York,Manhattan,MN31,Lenox Hill-Roosevelt Island,"(40.7603599798, -73.9616631402)"
12871,Free,LinkNYC - Citybridge,175 E 96 ST,40.78581769,-73.94903127,998364.4586,225575.5656,Outdoor Kiosk,New York,Manhattan,MN33,East Harlem South,"(40.7858176901, -73.9490312697)"
12803,Free,LinkNYC - Citybridge,55 WATER STREET,40.7039098,-74.00908241,981731.7695,195729.9262,Outdoor Kiosk,New York,Manhattan,MN25,Battery Park City-Lower Manhattan,"(40.7039097998, -74.0090824103)"
11328,Limited Free,SPECTRUM,Tennis Courts and Ball Field,40.739154,-73.737718,1056932.949,208679.1555,Outdoor,Queens,Queens,QN43,Bellerose,"(40.739154, -73.7377180002)"
11732,Free,LinkNYC - Citybridge,30-01 30 AVENUE,40.76730678,-73.92211147,1005825.189,218836.9039,Outdoor Kiosk,Queens,Queens,QN71,Old Astoria,"(40.7673067797, -73.92211147)"
11210,Free,LinkNYC - Citybridge,101 EAST 31 STREET,40.74514234,-73.98250633,989097.3748,210752.5694,Outdoor Kiosk,New York,Manhattan,MN20,Murray Hill-Kips Bay,"(40.7451423403, -73.9825063298)"
12052,Free,LinkNYC - Citybridge,475 6 AVENUE,40.73598356,-73.99799012,984807.0005,207415.2575,Outdoor Kiosk,New York,Manhattan,MN23,West Village,"(40.73598356, -73.9979901195)"
10290,Free,LinkNYC - Citybridge,50 5 AVENUE,40.681596,-73.977038,990618.6798,187601.0569,Outdoor Kiosk,Brooklyn,Brooklyn,BK37,Park Slope-Gowanus,"(40.681596, -73.9770380003)"
11673,Limited Free,ALTICEUSA,MULTI-PURPOSE  R,40.6559,-73.90285,1011205.646,178253.389,Indoor,Brooklyn,Brooklyn,BK81,Brownsville,"(40.6559, -73.9028500002)"
10740,Limited Free,ALTICEUSA,Crotona Park- CROTONA PARK NORTH  1/P/E/O CROTONA AV,40.841626,-73.892961,1013866.804,245922.5187,Outdoor,Bronx,Bronx,BX17,East Tremont,"(40.8416259997, -73.8929609999)"
12001,Free,LinkNYC - Citybridge,25-14 BROADWAY,40.7630995,-73.92793528,1004213.25,217302.6727,Outdoor Kiosk,Queens,Queens,QN70,Astoria,"(40.7630995, -73.9279352805)"
11880,Free,LinkNYC - Citybridge,1463 ST. NICHOLAS AVE,40.850683,-73.93287,1002821.789,249211.3471,Outdoor Kiosk,New York,Manhattan,MN35,Washington Heights North,"(40.8506830002, -73.9328699994)"
12690,Free,LinkNYC - Citybridge,739 8 AVENUE,40.75993686,-73.98797229,987582.055,216142.4362,Outdoor Kiosk,New York,Manhattan,MN15,Clinton,"(40.75993686, -73.9879722901)"
12829,Free,LinkNYC - Citybridge,1132 3 AVENUE,40.76606,-73.963554,994345.7629,218375.1689,Outdoor Kiosk,New York,Manhattan,MN40,Upper East Side-Carnegie Hill,"(40.7660599997, -73.9635540005)"
12850,Free,LinkNYC - Citybridge,1450 3 AVENUE,40.77636605,-73.95593074,996455.5632,222130.9767,Outdoor Kiosk,New York,Manhattan,MN40,Upper East Side-Carnegie Hill,"(40.7763660499, -73.9559307399)"
10557,Limited Free,SPECTRUM,NW area near E. 26th St off 5th Ave,40.7431,-73.9883,987492.0883,210008.2123,Outdoor,New York,Manhattan,MN13,Hudson Yards-Chelsea-Flatiron-Union Square,"(40.7431000004, -73.9883000001)"
11874,Free,LinkNYC - Citybridge,51 EAST TREMONT AVENUE,40.851329,-73.908266,1009628.337,249452.8817,Outdoor Kiosk,Bronx,Bronx,BX41,Mount Hope,"(40.8513290003, -73.9082660006)"
12925,Free,LinkNYC - Citybridge,157 COLUMBUS AVE,40.77426628,-73.98094971,989526.3959,221363.4635,Outdoor Kiosk,New York,Manhattan,MN14,Lincoln Square,"(40.7742662798, -73.9809497094)"
11384,Free,Transit Wireless,103 St (6),40.7906,-73.947478,998793.5513,227318.1789,Subway Station,New York,Manhattan,MN33,East Harlem South,"(40.7906000001, -73.9474780003)"
11540,Limited Free,SPECTRUM,Handball Court,40.687073,-73.853153,1024975.734,189629.7884,Outdoor TWC Aerial,Queens,Queens,QN53,Woodhaven,"(40.6870730002, -73.8531530003)"
11946,Free,LinkNYC - Citybridge,1546 FULTON STREET,40.67975193,-73.93910101,1001141.25,186934.2459,Outdoor Kiosk,Brooklyn,Brooklyn,BK61,Crown Heights North,"(40.6797519303, -73.9391010097)"
10038,Free,BPL,431 6 AVENUE,40.66821669,-73.98342743,988847.4458,182726.193,Library,Brooklyn,Brooklyn,BK37,Park Slope-Gowanus,"(40.6682166933, -73.9834274329)"
10924,Free,Harlem,Pole 62 - 7avNWC130,40.812037,-73.946231,999134.0565,235128.6374,Outdoor,New York,Manhattan,MN03,Central Harlem North-Polo Grounds,"(40.8120370003, -73.946231)"
11744,Free,LinkNYC - Citybridge,775 6 AVENUE,40.74493317,-73.99147237,986612.9546,210675.9931,Outdoor Kiosk,New York,Manhattan,MN17,Midtown-Midtown South,"(40.7449331704, -73.9914723702)"
11695,Limited Free,ALTICEUSA,ROOF OF CONEY ISLAND CONES,40.573384,-73.978937,990101.4581,148176.4055,Outdoor,Brooklyn,Brooklyn,BK21,Seagate-Coney Island,"(40.5733840001, -73.9789369997)"
12900,Free,LinkNYC - Citybridge,1881 AMSTERDAM AVE,40.83033564,-73.94375597,999814.9,241795.9216,Outdoor Kiosk,New York,Manhattan,MN04,Hamilton Heights,"(40.8303356351, -73.943755973)"
11749,Free,LinkNYC - Citybridge,730 COLUMBUS AVE,40.79237863,-73.96800953,993108.0525,227963.4526,Outdoor Kiosk,New York,Manhattan,MN12,Upper West Side,"(40.79237863, -73.96800953)"
12424,Free,Transit Wireless,"34 St-Penn Station (A,C,E)",40.752287,-73.993391,986081.1118,213355.1836,Subway Station,New York,Manhattan,MN17,Midtown-Midtown South,"(40.7522869999, -73.9933909997)"
10326,Free,LinkNYC - Citybridge,2631 FULTON STREET,40.67722165,-73.89746353,1012691.105,186023.1664,Outdoor Kiosk,Brooklyn,Brooklyn,BK82,East New York,"(40.6772216502, -73.8974635303)"
12296,Free,LinkNYC - Citybridge,124-05 JAMAICA AVENUE,40.70092643,-73.82620488,1032439.353,194690.6694,Outdoor Kiosk,Queens,Queens,QN54,Richmond Hill,"(40.7009264299, -73.8262048802)"
11956,Free,LinkNYC - Citybridge,89-30 QUEENS BOULEVARD,40.734162,-73.873658,1019264.251,206776.8503,Outdoor Kiosk,Queens,Queens,QN29,Elmhurst,"(40.7341620004, -73.8736580003)"
11939,Free,LinkNYC - Citybridge,1139 FULTON STREET,40.68131525,-73.95620126,996397.954,187500.9738,Outdoor Kiosk,Brooklyn,Brooklyn,BK69,Clinton Hill,"(40.6813152498, -73.9562012602)"
10993,Limited Free,SPECTRUM,Along Promenade,40.696989,-73.997486,984947.1154,193208.3522,Outdoor,Brooklyn,Brooklyn,BK09,Brooklyn Heights-Cobble Hill,"(40.6969889996, -73.9974860003)"
9736,Limited Free,SPECTRUM,Outdoor - Caf├⌐ and Park,40.741994,-73.961256,994986.201,209607.4188,Outdoor,Queens,Queens,QN31,Hunters Point-Sunnyside-West Maspeth,"(40.7419939997, -73.9612560003)"
10447,Limited Free,SPECTRUM,Park Area,40.728838,-73.883751,1016469.667,204833.279,Outdoor TWC Aerial,Queens,Queens,QN29,Elmhurst,"(40.7288380002, -73.8837509996)"
11464,Free,LinkNYC - Citybridge,300 WEST 108 STREET,40.80298423,-73.96785533,993149.3319,231827.4573,Outdoor Kiosk,New York,Manhattan,MN09,Morningside Heights,"(40.8029842296, -73.9678553303)"
12540,Free,LinkNYC - Citybridge,1100 Ave Of The Americas,40.75495098,-73.98389868,988710.9074,214326.0986,Outdoor Kiosk,New York,Manhattan,MN17,Midtown-Midtown South,"(40.7549509796, -73.9838986798)"
10496,Free,Manhattan Down Alliance,"110 Pearl Street, New York, NY 10005, USA",40.7047005,-74.0089035,981781.4042,196017.9968,Outdoor,New York,Manhattan,MN25,Battery Park City-Lower Manhattan,"(40.7047004998, -74.0089035)"
11183,Free,LinkNYC - Citybridge,21-01 BROADWAY,40.76516019,-73.93142777,1003245.179,218052.6732,Outdoor Kiosk,Queens,Queens,QN70,Astoria,"(40.7651601902, -73.93142777)"
11479,Free,LinkNYC - Citybridge,18 UNION SQUARE EAST,40.735187,-73.989871,987057.0951,207125.2016,Outdoor Kiosk,New York,Manhattan,MN21,Gramercy,"(40.7351870003, -73.9898710002)"
11837,Free,LinkNYC - Citybridge,79-20 37 AVENUE,40.74945855,-73.88645545,1015710.361,212345.0088,Outdoor Kiosk,Queens,Queens,QN28,Jackson Heights,"(40.7494585504, -73.8864554498)"
12128,Free,LinkNYC - Citybridge,82 5 AVENUE,40.73620058,-73.99360102,986023.3511,207494.383,Outdoor Kiosk,New York,Manhattan,MN13,Hudson Yards-Chelsea-Flatiron-Union Square,"(40.7362005797, -73.9936010197)"
9666,Free,LinkNYC - Citybridge,450 7 AVENUE,40.75122432,-73.9905922,986856.5981,212968.0859,Outdoor Kiosk,New York,Manhattan,MN17,Midtown-Midtown South,"(40.7512243202, -73.9905922004)"
12175,Free,LinkNYC - Citybridge,850 10 AVENUE,40.76826158,-73.98904337,987284.9526,219175.3671,Outdoor Kiosk,New York,Manhattan,MN15,Clinton,"(40.76826158, -73.9890433705)"
10177,Free,LinkNYC - Citybridge,38-02 31 St,40.75371822,-73.93221564,1003030.157,213883.8206,Outdoor Kiosk,Queens,Queens,QN68,Queensbridge-Ravenswood-Long Island City,"(40.7537182203, -73.9322156401)"
9727,Limited Free,SPECTRUM,3rd Floor Basketball Court,40.812681,-73.939357,1001036.719,235364.5119,Indoor,New York,Manhattan,MN03,Central Harlem North-Polo Grounds,"(40.8126809996, -73.9393569996)"
9942,Free,NYPL,742 10 AVENUE,40.76493462,-73.99122082,986681.9279,217963.177,Library,New York,Manhattan,MN15,Clinton,"(40.7649346184, -73.9912208178)"
9802,Free,AT&T,Entire Park,40.7931,-73.9354,1002137.325,228231.2506,Outdoor,New York,Manhattan,MN34,East Harlem North,"(40.7930999996, -73.9354000003)"
11599,Limited Free,SPECTRUM,Building P - NW towards Botanical Gardens,40.641963,-74.102026,955935.5251,173177.2981,Outdoor,Staten Island,Staten Island,SI22,West New Brighton-New Brighton-St. George,"(40.6419629997, -74.1020260005)"
12381,Free,Transit Wireless,Lafayette Av (C),40.686113,-73.973946,991475.7795,189246.971,Subway Station,Brooklyn,Brooklyn,BK68,Fort Greene,"(40.6861130002, -73.9739459997)"
11313,Limited Free,SPECTRUM,CRC Room,40.71025,-73.99798,984810.0212,198039.7277,Indoor,New York,Manhattan,MN27,Chinatown,"(40.7102499999, -73.9979799999)"
11854,Free,LinkNYC - Citybridge,77-01 ROOSEVELT AVENUE,40.74722343,-73.888492,1015147.121,211529.9582,Outdoor Kiosk,Queens,Queens,QN28,Jackson Heights,"(40.7472234296, -73.888492)"
11176,Free,LinkNYC - Citybridge,590 NOSTRAND AVENUE,40.67826808,-73.94979845,998174.4643,186391.7552,Outdoor Kiosk,Brooklyn,Brooklyn,BK61,Crown Heights North,"(40.6782680804, -73.9497984494)"
9901,Free,Downtown Brooklyn,125 Flatbush Ave. Extension,40.695578,-73.98397,988695.1066,192694.6799,Outdoor,Brooklyn,Brooklyn,BK38,DUMBO-Vinegar Hill-Downtown Brooklyn-Boerum Hill,"(40.6955779998, -73.9839699996)"
12260,Free,LinkNYC - Citybridge,164 EAST 37 STREET,40.747672,-73.976965,990632.5965,211674.5606,Outdoor Kiosk,New York,Manhattan,MN20,Murray Hill-Kips Bay,"(40.7476720001, -73.9769650002)"
10518,Free,Chelsea,8th and 15 th SE pole,40.74027454,-74.00197506,983702.6848,208978.5955,Outdoor,New York,Manhattan,MN13,Hudson Yards-Chelsea-Flatiron-Union Square,"(40.7402745363, -74.0019750591)"
9964,Free,QPL,144-20 243 STREET,40.65996362,-73.73991101,1056410.893,179826.0607,Library,Rosedale,Queens,QN05,Rosedale,"(40.6599636231, -73.7399110132)"
12211,Free,LinkNYC - Citybridge,592 6 AVENUE,40.73933558,-73.99526424,985562.3606,208636.5332,Outdoor Kiosk,New York,Manhattan,MN13,Hudson Yards-Chelsea-Flatiron-Union Square,"(40.7393355798, -73.9952642404)"
10610,Free,LinkNYC - Citybridge,183 CHURCH STREET,40.7157269,-74.00718506,982258.1907,200035.204,Outdoor Kiosk,New York,Manhattan,MN24,SoHo-TriBeCa-Civic Center-Little Italy,"(40.7157269003, -74.0071850598)"
9884,Free,Downtown Brooklyn,409 Fulton St.,40.692178,-73.988304,987493.4571,191455.7697,Outdoor,Brooklyn,Brooklyn,BK38,DUMBO-Vinegar Hill-Downtown Brooklyn-Boerum Hill,"(40.6921780001, -73.9883039999)"
12865,Free,LinkNYC - Citybridge,1585 3 AVENUE,40.780782,-73.9524,997432.5737,223740.3679,Outdoor Kiosk,New York,Manhattan,MN32,Yorkville,"(40.780782, -73.9524000005)"
10890,Free,LinkNYC - Citybridge,1066 2 AVENUE,40.75868871,-73.96558891,993783.1358,215689.338,Outdoor Kiosk,New York,Manhattan,MN19,Turtle Bay-East Midtown,"(40.75868871, -73.9655889096)"
10152,Free,Harlem,pole 47 - 124SS2E8,40.808843,-73.950495,997954.3758,233964.2539,Outdoor,New York,Manhattan,MN11,Central Harlem South,"(40.8088430001, -73.9504950003)"
10959,Free,Harlem,pole 23: 116CStNk-7av,40.803511,-73.952942,997278.0212,232021.2447,Outdoor,New York,Manhattan,MN11,Central Harlem South,"(40.8035109996, -73.9529419999)"
11129,Free,LinkNYC - Citybridge,1053 Nostrand Ave,40.662438,-73.950605,997954.0024,180624.2812,Outdoor Kiosk,Brooklyn,Brooklyn,BK60,Prospect Lefferts Gardens-Wingate,"(40.6624380004, -73.9506050003)"
11140,Free,LinkNYC - Citybridge,33-09 BROADWAY,40.761089,-73.923341,1005486.591,216571.2621,Outdoor Kiosk,Queens,Queens,QN70,Astoria,"(40.7610889998, -73.9233410004)"
10331,Free,LinkNYC - Citybridge,2440 FULTON STREET,40.67786155,-73.90430067,1010794.396,186254.1541,Outdoor Kiosk,Brooklyn,Brooklyn,BK79,Ocean Hill,"(40.6778615496, -73.9043006705)"
11487,Free,LinkNYC - Citybridge,568 WEST 23 STREET,40.74875784,-74.00690371,982337.1337,212069.403,Outdoor Kiosk,New York,Manhattan,MN13,Hudson Yards-Chelsea-Flatiron-Union Square,"(40.7487578396, -74.0069037095)"
12273,Free,LinkNYC - Citybridge,716 3 AVENUE,40.75262285,-73.97325385,991660.3408,213478.6069,Outdoor Kiosk,New York,Manhattan,MN19,Turtle Bay-East Midtown,"(40.7526228501, -73.9732538494)"
10717,Free,LinkNYC - Citybridge,84 DELANCEY STREET,40.719215,-73.98985,987063.5892,201306.1066,Outdoor Kiosk,New York,Manhattan,MN27,Chinatown,"(40.7192149999, -73.9898500002)"
10930,Free,Harlem,pole 69: 132NS2E8av,40.814125,-73.946993,998922.6632,235889.2415,Outdoor,New York,Manhattan,MN03,Central Harlem North-Polo Grounds,"(40.8141249998, -73.9469930003)"
11308,Free,Chelsea,18th between 9th and 10th,40.74412756,-74.00504351,982852.4578,210382.409,Outdoor,New York,Manhattan,MN13,Hudson Yards-Chelsea-Flatiron-Union Square,"(40.7441275609, -74.0050435071)"
12854,Free,LinkNYC - Citybridge,164 EAST 84 STREET,40.777528,-73.955153,996670.7517,222554.4234,Outdoor Kiosk,New York,Manhattan,MN40,Upper East Side-Carnegie Hill,"(40.7775279996, -73.9551530001)"
10844,Free,Transit Wireless,"Canal St (A,C,E)",40.720824,-74.005229,982800.5514,201892.195,Subway Station,New York,Manhattan,MN24,SoHo-TriBeCa-Civic Center-Little Italy,"(40.7208240001, -74.005229)"
12243,Free,LinkNYC - Citybridge,359 3 AVENUE,40.740775,-73.981576,989355.4973,209161.461,Outdoor Kiosk,New York,Manhattan,MN20,Murray Hill-Kips Bay,"(40.7407749998, -73.9815760003)"
11200,Free,LinkNYC - Citybridge,50 EAST 86 STREET,40.78071593,-73.95872118,995681.9686,223715.4086,Outdoor Kiosk,New York,Manhattan,MN40,Upper East Side-Carnegie Hill,"(40.7807159311, -73.958721175)"
9672,Limited Free,ALTICEUSA,HAWTHRONE ST 1 P/W/BROOKLYN AV,40.65831,-73.94406,999770.7882,179121.4272,Outdoor,Brooklyn,Brooklyn,BK60,Prospect Lefferts Gardens-Wingate,"(40.6583100001, -73.9440599999)"
9671,Free,LinkNYC - Citybridge,481 2 AVENUE,40.74061156,-73.97907885,990047.4999,209102.07,Outdoor Kiosk,New York,Manhattan,MN20,Murray Hill-Kips Bay,"(40.7406115598, -73.9790788503)"
10377,Limited Free,ALTICEUSA,ROOF OF BEACH HOUSE WEST SIDE,40.57687,-73.94459,999642.5056,149450.6063,Outdoor,Brooklyn,Brooklyn,BK17,Sheepshead Bay-Gerritsen Beach-Manhattan Beach,"(40.5768699999, -73.9445900006)"
11247,Free,LinkNYC - Citybridge,2293 FREDERICK DOUGLASS BOULEVARD,40.80899649,-73.95214914,997496.4328,234019.9211,Outdoor Kiosk,New York,Manhattan,MN11,Central Harlem South,"(40.8089964896, -73.9521491403)"
11968,Free,LinkNYC - Citybridge,45-01 42 STREET,40.74331229,-73.92240124,1005752.667,210094.8637,Outdoor Kiosk,Queens,Queens,QN31,Hunters Point-Sunnyside-West Maspeth,"(40.7433122897, -73.9224012404)"
10749,Limited Free,ALTICEUSA,BALCOM AV 2/P/W/O SAMPSON AV,40.817732,-73.82368,1033053.784,237248.079,Outdoor,Bronx,Bronx,BX52,Schuylerville-Throgs Neck-Edgewater Park,"(40.8177319996, -73.8236799998)"
12123,Free,LinkNYC - Citybridge,1313 BROADWAY,40.75009208,-73.98779173,987632.5759,212555.6701,Outdoor Kiosk,New York,Manhattan,MN17,Midtown-Midtown South,"(40.7500920801, -73.9877917293)"
12707,Free,LinkNYC - Citybridge,370 Lexington Ave,40.75083273,-73.97681673,990673.3749,212826.1269,Outdoor Kiosk,New York,Manhattan,MN20,Murray Hill-Kips Bay,"(40.7508327297, -73.9768167294)"
11759,Free,LinkNYC - Citybridge,717 6 AVENUE,40.7430973,-73.9928116,986241.9169,210007.0935,Outdoor Kiosk,New York,Manhattan,MN13,Hudson Yards-Chelsea-Flatiron-Union Square,"(40.7430972996, -73.9928116002)"
11275,Free,LinkNYC - Citybridge,621 AMSTERDAM AVENUE,40.79030079,-73.97298135,991731.6061,227205.9603,Outdoor Kiosk,New York,Manhattan,MN12,Upper West Side,"(40.7903007904, -73.9729813495)"
12216,Free,LinkNYC - Citybridge,140 3 AVENUE,40.73391885,-73.98688143,987885.6771,206663.2846,Outdoor Kiosk,New York,Manhattan,MN21,Gramercy,"(40.73391885, -73.9868814305)"
9824,Free,Fiberless,Liggett F Food Court,40.69013,-74.01934,978886.595,190709.9989,Outdoor,New York,Manhattan,MN99,Governors Island,"(40.6901300004, -74.0193399996)"
11931,Free,LinkNYC - Citybridge,1052 FLATBUSH AVENUE,40.6452617,-73.95814408,995865.3728,174365.3905,Outdoor Kiosk,Brooklyn,Brooklyn,BK42,Flatbush,"(40.6452617002, -73.9581440801)"
12445,Free,LinkNYC - Citybridge,2601 BROADWAY,40.796138,-73.970931,992298.6529,229332.8393,Outdoor Kiosk,New York,Manhattan,MN12,Upper West Side,"(40.796138, -73.970931)"
11983,Free,LinkNYC - Citybridge,10-31 JACKSON AVENUE,40.74228717,-73.95333647,997180.6946,209715.2998,Outdoor Kiosk,Queens,Queens,QN31,Hunters Point-Sunnyside-West Maspeth,"(40.7422871697, -73.9533364696)"
9837,Free,LinkNYC - Citybridge,66 SMITH STREET,40.68940822,-73.9887287,987375.812,190446.6421,Outdoor Kiosk,Brooklyn,Brooklyn,BK38,DUMBO-Vinegar Hill-Downtown Brooklyn-Boerum Hill,"(40.6894082198, -73.9887286998)"
10469,Limited Free,ALTICEUSA,C/O AVE U/ E 35TH ST,40.606029,-73.928466,1004112.963,160077.2104,Outdoor,Brooklyn,Brooklyn,BK45,Georgetown-Marine Park-Bergen Beach-Mill Basin,"(40.6060290001, -73.9284660004)"
12767,Free,LinkNYC - Citybridge,817 AMSTERDAM AVENUE,40.796374,-73.968542,992960.0905,229419.0507,Outdoor Kiosk,New York,Manhattan,MN12,Upper West Side,"(40.7963739998, -73.9685420003)"
10690,Free,LinkNYC - Citybridge,2300 BROADWAY,40.78651948,-73.97776529,990407.2577,225827.9286,Outdoor Kiosk,New York,Manhattan,MN12,Upper West Side,"(40.7865194849, -73.9777652896)"
10744,Limited Free,ALTICEUSA,ON SCHLEY AVENUE 2/P/E O BRUSH,40.816436,-73.838292,1029010.191,236768.0971,Outdoor,Bronx,Bronx,BX09,Soundview-Castle Hill-Clason Point-Harding Park,"(40.8164360002, -73.8382920001)"
12303,Free,LinkNYC - Citybridge,98-04 QUEENS BOULEVARD,40.728299,-73.858076,1023586.082,204647.3913,Outdoor Kiosk,Queens,Queens,QN17,Forest Hills,"(40.7282989999, -73.8580760006)"
12357,Free,Transit Wireless,"Broad St (J,Z)",40.706476,-74.011056,981184.681,196664.9328,Subway Station,New York,Manhattan,MN25,Battery Park City-Lower Manhattan,"(40.7064760002, -74.0110559999)"
9791,Free,LinkNYC - Citybridge,85-10 NORTHERN BOULEVARD,40.755835,-73.881778,1017003.23,214669.868,Outdoor Kiosk,Queens,Queens,QN28,Jackson Heights,"(40.7558349998, -73.881778)"
12521,Free,LinkNYC - Citybridge,900 3 AVENUE,40.75850806,-73.9689633,992848.3289,215623.1722,Outdoor Kiosk,New York,Manhattan,MN19,Turtle Bay-East Midtown,"(40.7585080601, -73.9689633006)"
10802,Free,Transit Wireless,Flushing-Main St (7),40.7596,-73.83003,1031337.259,216065.1614,Subway Station,Queens,Queens,QN22,Flushing,"(40.7596, -73.8300300003)"
12150,Free,LinkNYC - Citybridge,1865 AMSTERDAM AVENUE,40.82973306,-73.94420042,999692.0442,241576.3027,Outdoor Kiosk,New York,Manhattan,MN04,Hamilton Heights,"(40.8297330597, -73.9442004197)"
12409,Free,Transit Wireless,"Eastern Pkwy-Brooklyn Museum (2,3)",40.671987,-73.964375,994132.2798,184101.3973,Subway Station,Brooklyn,Brooklyn,BK99,park-cemetery-etc-Brooklyn,"(40.6719869996, -73.9643750004)"
10084,Free,NYPL,56 GIFFORDS LANE,40.55242326,-74.15111164,942256.9088,140575.4151,Library,Staten Island,Staten Island,SI54,Great Kills,"(40.5524232628, -74.1511116431)"
12574,Free,LinkNYC - Citybridge,301 WEST 30 STREET,40.74982748,-73.99552538,985489.799,212459.0636,Outdoor Kiosk,New York,Manhattan,MN13,Hudson Yards-Chelsea-Flatiron-Union Square,"(40.7498274798, -73.99552538)"
10012,Free,QPL,43-06 GREENPOINT AVENUE,40.74080878,-73.92166916,1005956.342,209182.937,Library,Long Island City,Queens,QN31,Hunters Point-Sunnyside-West Maspeth,"(40.7408087817, -73.9216691603)"
12628,Free,LinkNYC - Citybridge,1874 FULTON STREET,40.67896,-73.924424,1005212.387,186648.8941,Outdoor Kiosk,Brooklyn,Brooklyn,BK61,Crown Heights North,"(40.6789599998, -73.9244239997)"
10705,Free,LinkNYC - Citybridge,362 8 AVENUE,40.748482,-73.996012,985354.9919,211968.8556,Outdoor Kiosk,New York,Manhattan,MN17,Midtown-Midtown South,"(40.7484820003, -73.9960119997)"
12181,Free,LinkNYC - Citybridge,2022 ADAM CLAYTON POWELL JR BOULEVARD,40.80662994,-73.95025609,998020.9708,233157.9953,Outdoor Kiosk,New York,Manhattan,MN11,Central Harlem South,"(40.8066299401, -73.9502560898)"
12478,Free,LinkNYC - Citybridge,3407 BROADWAY,40.822319,-73.953676,997071.1892,238873.562,Outdoor Kiosk,New York,Manhattan,MN04,Hamilton Heights,"(40.8223190004, -73.9536760001)"
12614,Free,LinkNYC - Citybridge,3670 BROADWAY,40.830586,-73.947195,998863.1332,241886.5465,Outdoor Kiosk,New York,Manhattan,MN04,Hamilton Heights,"(40.8305860002, -73.9471950001)"
12362,Free,Transit Wireless,"DeKalb Av (B,M,Q,R)",40.690635,-73.981824,989290.5644,190893.9158,Subway Station,Brooklyn,Brooklyn,BK68,Fort Greene,"(40.6906349998, -73.9818239995)"
11785,Free,LinkNYC - Citybridge,95 EAST 116 STREET,40.799528,-73.943527,999885.5019,230571.639,Outdoor Kiosk,New York,Manhattan,MN34,East Harlem North,"(40.7995280001, -73.943527)"
9763,Free,LinkNYC - Citybridge,545 6 AVENUE,40.73788645,-73.9966041,985191.0828,208108.5523,Outdoor Kiosk,New York,Manhattan,MN13,Hudson Yards-Chelsea-Flatiron-Union Square,"(40.7378864504, -73.9966041004)"
11021,Free,Manhattan Down Alliance,"201 Front Street, New York, NY 10038, USA",40.7070007,-74.0035019,983279.0922,196855.9226,Outdoor,New York,Manhattan,MN25,Battery Park City-Lower Manhattan,"(40.7070006997, -74.0035019003)"
10113,Free,Manhattan Down Alliance,"95 Pearl Street, New York, NY 10004, USA",40.7043991,-74.0101013,981449.2881,195908.2237,Outdoor,New York,Manhattan,MN25,Battery Park City-Lower Manhattan,"(40.7043990997, -74.0101012997)"
11043,Free,LinkNYC - Citybridge,2883 3 AVENUE,40.8166923,-73.91671907,1007301.782,236831.1196,Outdoor Kiosk,Bronx,Bronx,BX34,Melrose South-Mott Haven North,"(40.8166922997, -73.9167190694)"
12656,Free,LinkNYC - Citybridge,550 8 AVENUE,40.754171,-73.991871,986502.1845,214041.6212,Outdoor Kiosk,New York,Manhattan,MN17,Midtown-Midtown South,"(40.7541709998, -73.9918709995)"
12727,Free,LinkNYC - Citybridge,598 MADISON AVENUE,40.76246695,-73.97235756,991907.5368,217065.2106,Outdoor Kiosk,New York,Manhattan,MN17,Midtown-Midtown South,"(40.7624669504, -73.9723575596)"
12505,Free,LinkNYC - Citybridge,2374 JEROME AVENUE,40.86063,-73.902369,1011255.973,252843.3539,Outdoor Kiosk,Bronx,Bronx,BX40,Fordham South,"(40.8606299996, -73.9023689997)"
12166,Free,LinkNYC - Citybridge,1126 1 AVENUE,40.76126735,-73.96062004,995159.2728,216629.4008,Outdoor Kiosk,New York,Manhattan,MN31,Lenox Hill-Roosevelt Island,"(40.7612673501, -73.9606200397)"
9985,Free,BPL,160 EAST 5 STREET,40.64871697,-73.97675728,990699.7187,175622.321,Library,Brooklyn,Brooklyn,BK40,Windsor Terrace,"(40.6487169711, -73.9767572777)"
11364,Free,Transit Wireless,IND-E-G-R-V-NORTHERN BLVD,40.752885,-73.906006,1010292.055,213586.9571,Subway Station,Queens,Queens,QN63,Woodside,"(40.7528849997, -73.9060059998)"
12020,Free,LinkNYC - Citybridge,691 METROPOLITAN AVENUE,40.71444574,-73.94594832,999234.2459,199572.9795,Outdoor Kiosk,Brooklyn,Brooklyn,BK90,East Williamsburg,"(40.7144457399, -73.9459483206)"
12398,Free,Transit Wireless,Fort Hamilton Pkwy (F),40.650782,-73.975776,990971.8094,176374.7418,Subway Station,Brooklyn,Brooklyn,BK40,Windsor Terrace,"(40.6507820003, -73.9757760002)"
12639,Free,LinkNYC - Citybridge,340 LIVINGSTON ST,40.68781362,-73.98128393,989440.5559,189866.0363,Outdoor Kiosk,Brooklyn,Brooklyn,BK38,DUMBO-Vinegar Hill-Downtown Brooklyn-Boerum Hill,"(40.6878136202, -73.9812839303)"
11280,Free,LinkNYC - Citybridge,241 CANAL STREET,40.71819776,-74.000048,984236.6942,200935.3321,Outdoor Kiosk,New York,Manhattan,MN24,SoHo-TriBeCa-Civic Center-Little Italy,"(40.7181977604, -74.0000479997)"
11058,Free,LinkNYC - Citybridge,83 WEST 125 STREET,40.807779,-73.945253,999405.7508,233577.4647,Outdoor Kiosk,New York,Manhattan,MN11,Central Harlem South,"(40.8077790003, -73.9452530004)"
11969,Free,LinkNYC - Citybridge,40-02 QUEENS BOULEVARD,40.743555,-73.924156,1005266.345,210182.8648,Outdoor Kiosk,Queens,Queens,QN31,Hunters Point-Sunnyside-West Maspeth,"(40.7435549998, -73.9241560003)"
10044,Free,NYPL,761 EAST 160 STREET,40.82064156,-73.90462886,1010646.729,238273.391,Library,Bronx,Bronx,BX34,Melrose South-Mott Haven North,"(40.8206415647, -73.9046288601)"
10212,Limited Free,SPECTRUM,Park Perimeter,40.672969,-74.006915,982331.8257,184457.2342,Outdoor TWC Aerial,Brooklyn,Brooklyn,BK33,Carroll Gardens-Columbia Street-Red Hook,"(40.6729689999, -74.0069149999)"
11232,Free,LinkNYC - Citybridge,552 6 AVENUE,40.73810851,-73.99615313,985316.0536,208189.461,Outdoor Kiosk,New York,Manhattan,MN13,Hudson Yards-Chelsea-Flatiron-Union Square,"(40.7381085104, -73.9961531298)"
12680,Free,LinkNYC - Citybridge,911 8 AVENUE,40.76493291,-73.98433343,988589.8086,217962.8207,Outdoor Kiosk,New York,Manhattan,MN15,Clinton,"(40.7649329098, -73.9843334296)"
10673,Free,LinkNYC - Citybridge,2202 BROADWAY,40.783191,-73.980253,989718.6318,224615.083,Outdoor Kiosk,New York,Manhattan,MN12,Upper West Side,"(40.7831909998, -73.9802530004)"
10244,Free,LinkNYC - Citybridge,10-50 44 DRIVE,40.748497,-73.949855,998144.1316,211978.2723,Outdoor Kiosk,Queens,Queens,QN31,Hunters Point-Sunnyside-West Maspeth,"(40.7484970002, -73.9498550004)"
10913,Free,Harlem,Pole 49: 126NS2E8av,40.810178,-73.948924,998388.9891,234450.8914,Outdoor,New York,Manhattan,MN03,Central Harlem North-Polo Grounds,"(40.810178, -73.9489240003)"
11399,Free,Transit Wireless,Between 14th and 16th Streets on 6th Avenue,40.737335,-73.996786,985140.6816,207907.6397,Subway Station,New York,Manhattan,MN23,West Village,"(40.7373350001, -73.9967859996)"
11844,Free,LinkNYC - Citybridge,850 2 AVENUE,40.75183416,-73.97059306,992397.6408,213191.4979,Outdoor Kiosk,New York,Manhattan,MN19,Turtle Bay-East Midtown,"(40.7518341599, -73.9705930597)"
9627,Free,LinkNYC - Citybridge,247 EAST 169 STREET,40.83573444,-73.91396042,1008058.549,243769.6014,Outdoor Kiosk,Bronx,Bronx,BX14,East Concourse-Concourse Village,"(40.8357344401, -73.9139604204)"
12452,Free,LinkNYC - Citybridge,210 WEST 101 STREET,40.79770166,-73.96924393,992765.5699,229902.6944,Outdoor Kiosk,New York,Manhattan,MN12,Upper West Side,"(40.7977016599, -73.9692439318)"
9829,Free,Fiberless,Blazing Saddles,40.68855,-74.01812,979224.8086,190134.2861,Outdoor,New York,Manhattan,MN99,Governors Island,"(40.6885499998, -74.0181199997)"
11070,Free,LinkNYC - Citybridge,1995 ADAM CLAYTON POWELL JR BOULEVARD,40.805615,-73.950557,997937.8765,232788.1696,Outdoor Kiosk,New York,Manhattan,MN11,Central Harlem South,"(40.8056149998, -73.9505569995)"
10480,Limited Free,ALTICEUSA,1ST FL SENIOR GAME ROOM,40.876827,-73.878725,1017788.029,258752.7227,Indoor,Bronx,Bronx,BX43,Norwood,"(40.8768270004, -73.8787249995)"
12483,Free,LinkNYC - Citybridge,2943 BROADWAY,40.807508,-73.964488,994080.9173,233475.9862,Outdoor Kiosk,New York,Manhattan,MN09,Morningside Heights,"(40.8075079996, -73.9644880005)"
11150,Free,LinkNYC - Citybridge,75-10 BROADWAY,40.74604558,-73.89012129,1014696.209,211100.2596,Outdoor Kiosk,Queens,Queens,QN29,Elmhurst,"(40.7460455796, -73.8901212898)"
11010,Limited Free,SPECTRUM,"Front area of the Lake Club Restaurant, Bridge and Parking Lot",40.618064,-74.108186,954215.2362,164472.3112,Outdoor,Staten Island,Staten Island,SI07,Westerleigh,"(40.6180639999, -74.1081859996)"
10229,Limited Free,SPECTRUM,Beach 97 - SW Concession and Beach,40.582824,-73.817578,1034920.99,151667.6902,Outdoor,Queens,Queens,QN10,Breezy Point-Belle Harbor-Rockaway Park-Broad Channel,"(40.5828240003, -73.8175779995)"
11579,Limited Free,SPECTRUM,Workout Rm,40.687191,-73.769559,1048159.074,189722.7056,Indoor,Queens,Queens,QN08,St. Albans,"(40.687191, -73.7695589996)"
12886,Free,LinkNYC - Citybridge,795 WASHINGTON AVE,40.672748,-73.962694,994598.4668,184378.8455,Outdoor Kiosk,Brooklyn,Brooklyn,BK64,Prospect Heights,"(40.6727480001, -73.9626939995)"
9957,Free,NYPL,5 CENTRAL AVENUE,40.64178537,-74.07664577,962979.0438,173105.3986,Library,Staten Island,Staten Island,SI22,West New Brighton-New Brighton-St. George,"(40.6417853679, -74.0766457652)"
12043,Free,LinkNYC - Citybridge,302 5 AVENUE,40.74671976,-73.98593572,988147.0224,211327.1027,Outdoor Kiosk,New York,Manhattan,MN17,Midtown-Midtown South,"(40.74671976, -73.9859357197)"
11721,Limited Free,ALTICEUSA,CROTONA PARK-TRAFALGAR PL 1/P/N/O E 175TH ST,40.839709,-73.887464,1015388.675,245225.9909,Outdoor,Bronx,Bronx,BX17,East Tremont,"(40.8397090001, -73.8874640004)"
10128,Free,Harlem,35E125 unit 1,40.805971,-73.940566,1000703.712,232919.592,Outdoor,New York,Manhattan,MN34,East Harlem North,"(40.8059709999, -73.9405659999)"
10582,Limited Free,ALTICEUSA,ROOF OF RESTROOM BLDG LEFT,40.811544,-73.914138,1008018.049,234956.1003,Outdoor,Bronx,Bronx,BX39,Mott Haven-Port Morris,"(40.811544, -73.9141379999)"
9691,Limited Free,ALTICEUSA,SNACK BAR  NORTH EASTCORNER,40.650738,-73.968429,993010.5012,176359.3606,Outdoor,Brooklyn,Brooklyn,BK99,park-cemetery-etc-Brooklyn,"(40.6507380002, -73.9684290006)"
10984,Limited Free,SPECTRUM,Tennis Courts and Ball Field,40.739547,-73.73592,1057430.774,208823.8344,Outdoor,Queens,Queens,QN43,Bellerose,"(40.7395470004, -73.7359200005)"
11265,Free,LinkNYC - Citybridge,311 11 AVENUE,40.75280422,-74.00431271,983055.1152,213543.5838,Outdoor Kiosk,New York,Manhattan,MN13,Hudson Yards-Chelsea-Flatiron-Union Square,"(40.7528042196, -74.0043127105)"
11951,Free,LinkNYC - Citybridge,2122 FULTON STREET,40.67828559,-73.91218476,1008607.409,186406.3536,Outdoor Kiosk,Brooklyn,Brooklyn,BK79,Ocean Hill,"(40.6782855904, -73.9121847599)"
10197,Free,City Tech,300 Jay Street,40.695088,-73.987671,987668.8472,192515.9923,Outdoor,Brooklyn,Brooklyn,BK38,DUMBO-Vinegar Hill-Downtown Brooklyn-Boerum Hill,"(40.6950879997, -73.9876710001)"
10593,Free,AT&T,Near Tennis Courts,40.8631,-73.9065,1010112.325,253742.0237,Outdoor,Bronx,Bronx,BX30,Kingsbridge Heights,"(40.8631000001, -73.9065000005)"
12325,Free,LinkNYC - Citybridge,126 EAST 183 STREET,40.857756,-73.901091,1011610.666,251796.6421,Outdoor Kiosk,Bronx,Bronx,BX40,Fordham South,"(40.8577559996, -73.9010909997)"
11508,Limited Free,SPECTRUM,Comfort station - Front Left,40.639278,-74.032091,975343.6766,172184.222,Outdoor,Brooklyn,Brooklyn,BK31,Bay Ridge,"(40.639278, -74.0320909998)"
10863,Limited Free,SPECTRUM,32nd Ave between 155th and 156th St,40.769536,-73.805968,1037995.193,219699.015,Outdoor TWC Aerial,Queens,Queens,QN51,Murray Hill,"(40.7695360002, -73.8059679998)"
11567,Limited Free,SPECTRUM,Parking Lot and Skate Park,40.596197,-73.746262,1054716.13,156589.1078,Outdoor TWC Aerial,Queens,Queens,QN15,Far Rockaway-Bayswater,"(40.5961969996, -73.7462619996)"
10297,Free,LinkNYC - Citybridge,515 5 AVENUE,40.66653858,-73.98837832,987474.0864,182114.5879,Outdoor Kiosk,Brooklyn,Brooklyn,BK37,Park Slope-Gowanus,"(40.6665385801, -73.9883783202)"
11796,Free,LinkNYC - Citybridge,590 W 187 ST,40.85291726,-73.93082739,1003386.242,250025.8123,Outdoor Kiosk,New York,Manhattan,MN35,Washington Heights North,"(40.8529172596, -73.9308273902)"
11899,Free,LinkNYC - Citybridge,1520 ST. NICHOLAS AVE,40.85241173,-73.93133833,1003245.037,249841.5174,Outdoor Kiosk,New York,Manhattan,MN35,Washington Heights North,"(40.8524117299, -73.93133833)"
12456,Free,LinkNYC - Citybridge,216 WEST 103 STREET,40.798954,-73.968326,993019.5569,230359.0561,Outdoor Kiosk,New York,Manhattan,MN12,Upper West Side,"(40.7989539998, -73.9683259995)"
12612,Free,LinkNYC - Citybridge,3647 BROADWAY,40.829809,-73.948201,998584.9024,241603.2905,Outdoor Kiosk,New York,Manhattan,MN04,Hamilton Heights,"(40.8298089998, -73.9482010003)"
11359,Free,Transit Wireless,IND-G-LONG ISLAND CITY/COURT SQ,40.746554,-73.943832,999813.4328,211271.3879,Subway Station,Queens,Queens,QN31,Hunters Point-Sunnyside-West Maspeth,"(40.7465540001, -73.9438320005)"
12671,Free,LinkNYC - Citybridge,825 8 AVENUE,40.76224616,-73.98629301,988047.1368,216983.8584,Outdoor Kiosk,New York,Manhattan,MN15,Clinton,"(40.7622461604, -73.9862930105)"
11031,Free,LinkNYC - Citybridge,37-65 95 STREET,40.74908967,-73.87181741,1019766.391,212216.2098,Outdoor Kiosk,Queens,Queens,QN28,Jackson Heights,"(40.7490896695, -73.8718174082)"
12113,Free,LinkNYC - Citybridge,1604 BROADWAY,40.760646,-73.98442,988566.1055,216400.9541,Outdoor Kiosk,New York,Manhattan,MN17,Midtown-Midtown South,"(40.7606459996, -73.9844199996)"
12790,Free,LinkNYC - Citybridge,1500 AMSTERDAM AVENUE,40.818371,-73.952755,997326.8721,237435.2991,Outdoor Kiosk,New York,Manhattan,MN06,Manhattanville,"(40.8183710003, -73.952755)"
11694,Limited Free,ALTICEUSA,ROOF OF CONEY ISLAND CONES,40.573381,-73.978872,990119.5158,148175.3169,Outdoor,Brooklyn,Brooklyn,BK21,Seagate-Coney Island,"(40.5733810002, -73.9788719999)"
11302,Free,BPL,9612 CHURCH AVENUE,40.6557102,-73.91493839,1007851.62,178180.7516,Library,Brooklyn,Brooklyn,BK96,Rugby-Remsen Village,"(40.6557102014, -73.9149383856)"
10363,Limited Free,ALTICEUSA,PARKING STRUCTURE 3FLR NORTH FACING ON OUTSIDE ( FIRST RADIO IN FROM RIVER ST),40.825696,-73.927311,1004367.263,240108.8824,Outdoor,Bronx,Bronx,BX63,West Concourse,"(40.8256959997, -73.9273109998)"
11912,Free,LinkNYC - Citybridge,45-02 30 AVENUE,40.76191296,-73.91093862,1008922.075,216874.7077,Outdoor Kiosk,Queens,Queens,QN70,Astoria,"(40.76191296, -73.9109386203)"
11519,Free,Downtown Brooklyn,490 Fulton St.,40.689633,-73.983165,988918.7485,190528.7837,Outdoor,Brooklyn,Brooklyn,BK38,DUMBO-Vinegar Hill-Downtown Brooklyn-Boerum Hill,"(40.6896330001, -73.9831650003)"
11107,Free,LinkNYC - Citybridge,2066 HYLAN BOULEVARD,40.57983879,-74.1000124,956468.5014,150543.2009,Outdoor Kiosk,Staten Island,Staten Island,SI36,Old Town-Dongan Hills-South Beach,"(40.5798387882, -74.1000124032)"
12932,Free,LinkNYC - Citybridge,936 7 AVENUE,40.76664932,-73.9793497,989970.2077,218588.452,Outdoor Kiosk,New York,Manhattan,MN17,Midtown-Midtown South,"(40.7666493204, -73.9793497005)"
12016,Free,LinkNYC - Citybridge,63 MADISON AVENUE,40.74349317,-73.98597197,988137.1661,210151.5512,Outdoor Kiosk,New York,Manhattan,MN13,Hudson Yards-Chelsea-Flatiron-Union Square,"(40.74349317, -73.9859719702)"
10069,Free,NYPL,192 EAST BROADWAY,40.71445646,-73.98853727,987427.7059,199572.47,Library,New York,Manhattan,MN28,Lower East Side,"(40.7144564597, -73.9885372705)"
12869,Free,LinkNYC - Citybridge,1675 3 AVENUE,40.78328877,-73.9505618,997941.1383,224653.951,Outdoor Kiosk,New York,Manhattan,MN32,Yorkville,"(40.7832887698, -73.9505618001)"
9996,Free,QPL,158-21 JEWEL AVENUE,40.73303424,-73.80987988,1036940.5,206397.9012,Library,Flushing,Queens,QN38,Pomonok-Flushing Heights-Hillcrest,"(40.7330342416, -73.8098798843)"
12430,Free,Transit Wireless,77 St (R),40.629742,-74.02551,977169.1119,168709.4002,Subway Station,Brooklyn,Brooklyn,BK31,Bay Ridge,"(40.6297420001, -74.0255099998)"
10136,Free,Harlem,211 129Th Street_HCZ,40.812186,-73.947955,998656.7957,235182.635,Outdoor,New York,Manhattan,MN03,Central Harlem North-Polo Grounds,"(40.8121859998, -73.9479549997)"
9704,Limited Free,ALTICEUSA,BIRCHAll AV 6/P/E/O SAGAMORE ST,40.84459,-73.8598,1023040.442,247015.3626,Outdoor,Bronx,Bronx,BX37,Van Nest-Morris Park-Westchester Square,"(40.8445900004, -73.8598)"
10345,Free,Fiberless,Nolan Building 20B Front,40.69023,-74.01465,980187.2407,190746.1793,Outdoor,New York,Manhattan,MN99,Governors Island,"(40.6902299998, -74.0146499995)"
10269,Free,LinkNYC - Citybridge,185 BERRY STREET,40.71684975,-73.96084076,995105.3608,200446.6352,Outdoor Kiosk,Brooklyn,Brooklyn,BK73,North Side-South Side,"(40.716849745, -73.9608407636)"
10184,Free,City Tech,300 Jay Street,40.696027,-73.988456,987451.1206,192858.0681,Outdoor,Brooklyn,Brooklyn,BK38,DUMBO-Vinegar Hill-Downtown Brooklyn-Boerum Hill,"(40.6960269997, -73.9884560003)"
10788,Free,Transit Wireless,68 St-Hunter College (6),40.768141,-73.96387,994257.9163,219133.3098,Subway Station,New York,Manhattan,MN40,Upper East Side-Carnegie Hill,"(40.7681409996, -73.9638700004)"
10895,Free,LinkNYC - Citybridge,1439 ST. NICHOLAS AVE,40.84985449,-73.93347331,1002655.11,248909.3621,Outdoor Kiosk,New York,Manhattan,MN35,Washington Heights North,"(40.8498544901, -73.9334733103)"
10537,Limited Free,SPECTRUM,Along Boardwalk and Beach,40.572313,-74.086013,960354.5694,147797.2419,Outdoor,Staten Island,Staten Island,SI36,Old Town-Dongan Hills-South Beach,"(40.5723130001, -74.0860130002)"
11205,Free,LinkNYC - Citybridge,728 2 AVENUE,40.74796623,-73.9734053,991618.8947,211782.0374,Outdoor Kiosk,New York,Manhattan,MN19,Turtle Bay-East Midtown,"(40.7479662301, -73.9734053)"
12075,Free,LinkNYC - Citybridge,601 5 AVENUE,40.664176,-73.990353,986926.3654,181253.7668,Outdoor Kiosk,Brooklyn,Brooklyn,BK37,Park Slope-Gowanus,"(40.6641759998, -73.9903530005)"
12420,Free,Transit Wireless,Astor Place (6),40.730054,-73.99107,986725.0016,205255.0528,Subway Station,New York,Manhattan,MN23,West Village,"(40.7300540003, -73.9910699998)"
11380,Free,Transit Wireless,IND-E-F-75TH AVE,40.718331,-73.837324,1029344.507,201025.7476,Subway Station,Queens,Queens,QN17,Forest Hills,"(40.7183309998, -73.8373240005)"
11242,Free,LinkNYC - Citybridge,2001 ADAM CLAYTON POWELL JR BOULEVARD,40.805827,-73.950407,997979.3587,232865.4323,Outdoor Kiosk,New York,Manhattan,MN11,Central Harlem South,"(40.805827, -73.9504070006)"
11237,Free,LinkNYC - Citybridge,36-01 BROADWAY,40.760095,-73.921216,1006075.598,216209.6378,Outdoor Kiosk,Queens,Queens,QN70,Astoria,"(40.7600949999, -73.9212160003)"
11366,Free,Transit Wireless,IND-E-F-BRIARWOOD / VAN WYCK BLVD,40.709179,-73.820574,1033994.505,197700.4695,Subway Station,Queens,Queens,QN60,Kew Gardens,"(40.7091789996, -73.8205739999)"
10658,Free,LinkNYC - Citybridge,2077 BROADWAY,40.77860683,-73.98217819,989185.8195,222944.8002,Outdoor Kiosk,New York,Manhattan,MN14,Lincoln Square,"(40.7786068298, -73.9821781901)"
11075,Free,LinkNYC - Citybridge,201 WEST 125 STREET,40.80918643,-73.94859133,998481.2917,234089.6811,Outdoor Kiosk,New York,Manhattan,MN11,Central Harlem South,"(40.80918643, -73.9485913301)"
11193,Free,LinkNYC - Citybridge,45-06 GREENPOINT AVENUE,40.74184571,-73.91968964,1006504.542,209561.2194,Outdoor Kiosk,Queens,Queens,QN31,Hunters Point-Sunnyside-West Maspeth,"(40.7418457098, -73.9196896404)"
11102,Free,LinkNYC - Citybridge,2381 HYLAN BOULEVARD,40.57285047,-74.10753883,954374.6821,147999.6621,Outdoor Kiosk,Staten Island,Staten Island,SI45,New Dorp-Midland Beach,"(40.5728504701, -74.1075388295)"
12048,Free,LinkNYC - Citybridge,1494 1 AVENUE,40.77152635,-73.95313791,997230.0173,220368.1138,Outdoor Kiosk,New York,Manhattan,MN31,Lenox Hill-Roosevelt Island,"(40.7715263503, -73.9531379105)"
10550,Limited Free,SPECTRUM,Park Perimeter,40.75,-73.80506,1038262.541,212581.9866,Outdoor TWC Aerial,Queens,Queens,QN52,East Flushing,"(40.7499999997, -73.8050600003)"
11447,Free,LinkNYC - Citybridge,425 6 AVENUE,40.73439251,-73.99915159,984485.1262,206835.5824,Outdoor Kiosk,New York,Manhattan,MN23,West Village,"(40.7343925094, -73.9991515911)"
11988,Free,LinkNYC - Citybridge,4802 CHURCH AVE,40.65159,-73.932187,1003066.897,176675.4725,Outdoor Kiosk,Brooklyn,Brooklyn,BK91,East Flatbush-Farragut,"(40.6515900001, -73.9321869996)"
12292,Free,LinkNYC - Citybridge,118-18 JAMAICA AVE,40.69989495,-73.83109767,1031083.423,194312.2174,Outdoor Kiosk,Queens,Queens,QN54,Richmond Hill,"(40.6998949497, -73.8310976698)"
11118,Free,LinkNYC - Citybridge,2110 RICHMOND ROAD,40.581304,-74.11201028,953136.409,151081.047,Outdoor Kiosk,Staten Island,Staten Island,SI45,New Dorp-Midland Beach,"(40.5813039997, -74.1120102804)"
9607,Free,Spot On Networks,10-05 41 AVENUE,40.755751,-73.945166,999441.7012,214621.9169,Indoor AP - North Maintenance Area,Queens,Queens,QN68,Queensbridge-Ravenswood-Long Island City,"(40.7557510001, -73.9451659997)"
12510,Free,LinkNYC - Citybridge,760 3 AVENUE,40.754092,-73.97218,991957.6936,214013.9585,Outdoor Kiosk,New York,Manhattan,MN19,Turtle Bay-East Midtown,"(40.7540920002, -73.9721800002)"
9852,Free,Downtown Brooklyn,196 Flatbush Ave. Extension (Pole),40.693721,-73.983328,988873.2614,192018.1534,Outdoor,Brooklyn,Brooklyn,BK38,DUMBO-Vinegar Hill-Downtown Brooklyn-Boerum Hill,"(40.6937210001, -73.9833279997)"
11082,Free,LinkNYC - Citybridge,270 WEST 136 STREET,40.81705699,-73.94601241,999193.4383,236957.6364,Outdoor Kiosk,New York,Manhattan,MN03,Central Harlem North-Polo Grounds,"(40.8170569901, -73.9460124099)"
11662,Limited Free,ALTICEUSA,WEST OF K-32 OUTSIDE HANDBALL COURT,40.59815,-74.001135,983934.8054,157198.58,Outdoor,Brooklyn,Brooklyn,BK27,Bath Beach,"(40.59815, -74.0011350002)"
11619,Limited Free,SPECTRUM,Roof top covering JJ Walker Park,40.729564,-74.005462,982736.1638,205076.4514,Outdoor,New York,Manhattan,MN23,West Village,"(40.729564, -74.0054619998)"
11432,Free,LinkNYC - Citybridge,700 AMSTERDAM AVE,40.79270287,-73.97148731,992145.0285,228081.2519,Outdoor Kiosk,New York,Manhattan,MN12,Upper West Side,"(40.7927028702, -73.9714873104)"
11825,Free,LinkNYC - Citybridge,765 AMSTERDAM AVENUE,40.795399,-73.969254,992763.0768,229063.7545,Outdoor Kiosk,New York,Manhattan,MN12,Upper West Side,"(40.7953990002, -73.9692539998)"
11172,Free,LinkNYC - Citybridge,1106 NOSTRAND AVENUE,40.6607318,-73.95072664,997920.6049,180002.6456,Outdoor Kiosk,Brooklyn,Brooklyn,BK60,Prospect Lefferts Gardens-Wingate,"(40.6607317999, -73.9507266396)"
11412,Free,Transit Wireless,34th STREET - 6 Avenue and Broadway,40.749719,-73.987823,987623.9306,212419.7438,Subway Station,New York,Manhattan,MN17,Midtown-Midtown South,"(40.7497190002, -73.9878229999)"
11819,Free,LinkNYC - Citybridge,522 2 AVENUE,40.74171074,-73.97797283,990353.8907,209502.6116,Outdoor Kiosk,New York,Manhattan,MN20,Murray Hill-Kips Bay,"(40.7417107404, -73.9779728296)"
9723,Limited Free,ALTICEUSA,Lobby  Drop ceiling,40.811544,-73.914138,1008018.049,234956.1003,Indoor,Bronx,Bronx,BX39,Mott Haven-Port Morris,"(40.811544, -73.9141379999)"
11323,Free,NYPL,2150 UNIVERSITY AVENUE,40.85742189,-73.90931635,1009335.458,251672.4524,Library,Bronx,Bronx,BX36,University Heights-Morris Heights,"(40.8574218942, -73.9093163503)"
12473,Free,LinkNYC - Citybridge,675 3 AVENUE,40.75096552,-73.97414806,991412.7672,212874.7137,Outdoor Kiosk,New York,Manhattan,MN19,Turtle Bay-East Midtown,"(40.7509655202, -73.9741480605)"
10358,Free,Fiberless,Ball Field Backstop,40.68846,-74.02255,977996.2349,190101.7819,Outdoor,New York,Manhattan,MN99,Governors Island,"(40.6884600004, -74.0225500005)"
11335,Free,Transit Wireless,167th Street  - Grand Concourse,40.833773,-73.918438,1006820.196,243053.7912,Subway Station,Bronx,Bronx,BX63,West Concourse,"(40.8337730002, -73.9184379998)"
11161,Free,LinkNYC - Citybridge,374 WILLIS AVENUE,40.81212659,-73.9205525,1006242.215,235166.6833,Outdoor Kiosk,Bronx,Bronx,BX39,Mott Haven-Port Morris,"(40.8121265904, -73.9205525)"
12171,Free,LinkNYC - Citybridge,129 9 AVENUE,40.74359974,-74.00358788,983255.8002,210190.0872,Outdoor Kiosk,New York,Manhattan,MN13,Hudson Yards-Chelsea-Flatiron-Union Square,"(40.7435997402, -74.0035878803)"
9847,Limited Free,SPECTRUM,Sitting Area,40.721026,-73.877935,1018085.599,201989.3211,Outdoor,Queens,Queens,QN21,Middle Village,"(40.7210259999, -73.8779350001)"
12271,Free,LinkNYC - Citybridge,666 3Rd Ave,40.75140578,-73.97414247,991414.2688,213035.115,Outdoor Kiosk,New York,Manhattan,MN19,Turtle Bay-East Midtown,"(40.7514057799, -73.9741424698)"
11677,Limited Free,ALTICEUSA,LEFT SIDE OF GAZEBO IN PARK S/O MT EDEN PKWY,40.8416,-73.9071,1009954.671,245908.5814,Outdoor,Bronx,Bronx,BX99,park-cemetery-etc-Bronx,"(40.8416000001, -73.9071000004)"
11624,Limited Free,SPECTRUM,NW Area off Washington Sq N,40.731863,-73.997778,984865.8236,205914.0095,Outdoor,New York,Manhattan,MN23,West Village,"(40.7318629998, -73.9977779999)"
11016,Free,BPL,5108 4 AVENUE,40.64591212,-74.01363,980467.5958,174599.8769,Library,Brooklyn,Brooklyn,BK32,Sunset Park West,"(40.645912124, -74.0136300012)"
11215,Free,LinkNYC - Citybridge,27 EAST 32 STREET,40.74646478,-73.98371405,988762.6343,211234.3118,Outdoor Kiosk,New York,Manhattan,MN17,Midtown-Midtown South,"(40.7464647798, -73.98371405)"
11125,Free,LinkNYC - Citybridge,545 NOSTRAND AVENUE,40.678818,-73.949579,998235.2178,186592.1416,Outdoor Kiosk,Brooklyn,Brooklyn,BK61,Crown Heights North,"(40.6788179999, -73.9495790005)"
10346,Free,Fiberless,Nolan Building 20A Back,40.69017,-74.01444,980245.4745,190724.3099,Outdoor,New York,Manhattan,MN99,Governors Island,"(40.6901699999, -74.0144399999)"
12160,Free,LinkNYC - Citybridge,37-08 35 AVENUE,40.75577655,-73.92362684,1005409.093,214635.6948,Outdoor Kiosk,Queens,Queens,QN70,Astoria,"(40.7557765502, -73.9236268395)"
10641,Free,LinkNYC - Citybridge,1860 BROADWAY,40.76981619,-73.98192926,989255.4217,219742.0881,Outdoor Kiosk,New York,Manhattan,MN14,Lincoln Square,"(40.7698161856, -73.9819292623)"
12377,Free,Transit Wireless,Bushwick Av-Aberdeen St (L),40.682829,-73.905249,1010529.397,188063.6525,Subway Station,Brooklyn,Brooklyn,BK78,Bushwick South,"(40.6828289997, -73.9052490006)"
9938,Free,NYPL,203 WEST 115 STREET,40.80297988,-73.95353074,997115.1298,231827.6529,Library,New York,Manhattan,MN11,Central Harlem South,"(40.802979882, -73.9535307443)"
11884,Free,LinkNYC - Citybridge,1480 ST. NICHOLAS AVE,40.8511646,-73.93224896,1002993.466,249386.9445,Outdoor Kiosk,New York,Manhattan,MN35,Washington Heights North,"(40.8511646002, -73.9322489595)"
10506,Free,Chelsea,8th and 18th,40.74229862,-74.00070906,984053.5168,209716.0285,Outdoor,New York,Manhattan,MN13,Hudson Yards-Chelsea-Flatiron-Union Square,"(40.7422986209, -74.0007090572)"
11727,Free,LinkNYC - Citybridge,61 AVENUE OF PUERTO RICO,40.703654,-73.942682,1000142.31,195641.7997,Outdoor Kiosk,Brooklyn,Brooklyn,BK90,East Williamsburg,"(40.7036540004, -73.9426819995)"
9676,Limited Free,ALTICEUSA,HAWTHRONE ST 1 P/S/O/BROOKLYN AV,40.65743,-73.94716,998910.8736,178800.2848,Outdoor,Brooklyn,Brooklyn,BK60,Prospect Lefferts Gardens-Wingate,"(40.6574300004, -73.9471600002)"
11220,Free,LinkNYC - Citybridge,1191 2 AVENUE,40.76307964,-73.96268514,994586.9052,217289.4283,Outdoor Kiosk,New York,Manhattan,MN31,Lenox Hill-Roosevelt Island,"(40.7630796436, -73.9626851397)"
12015,Free,LinkNYC - Citybridge,600 WEST 150 STREET,40.82966242,-73.94842204,998523.7631,241549.85,Outdoor Kiosk,New York,Manhattan,MN04,Hamilton Heights,"(40.8296624199, -73.9484220401)"
10373,Limited Free,ALTICEUSA,SPEAKER POLE EAST OF TRACK AND FIELD( MIDDLE ),40.827799,-73.928565,1004019.583,240874.7965,Outdoor,Bronx,Bronx,BX63,West Concourse,"(40.8277990001, -73.9285650002)"
10904,Free,LinkNYC - Citybridge,8 WEST BURNSIDE AVENUE,40.853764,-73.907899,1009728.935,250340.1509,Outdoor Kiosk,Bronx,Bronx,BX36,University Heights-Morris Heights,"(40.8537639997, -73.9078989995)"
12837,Free,LinkNYC - Citybridge,1270 3 AVENUE,40.770545,-73.960254,995259.1417,220009.6007,Outdoor Kiosk,New York,Manhattan,MN40,Upper East Side-Carnegie Hill,"(40.7705449998, -73.9602539997)"
10021,Free,BPL,1044 EASTERN PARKWAY,40.66848651,-73.93365085,1002656.042,182831.0307,Library,Brooklyn,Brooklyn,BK61,Crown Heights North,"(40.6684865101, -73.9336508496)"
10831,Free,Transit Wireless,"Prince St (N,R)",40.724329,-73.997702,984886.9587,203169.1396,Subway Station,New York,Manhattan,MN24,SoHo-TriBeCa-Civic Center-Little Italy,"(40.7243290001, -73.9977020004)"
12030,Free,LinkNYC - Citybridge,159 WEST 52 STREET,40.7622099,-73.98188075,989269.4325,216970.8696,Outdoor Kiosk,New York,Manhattan,MN17,Midtown-Midtown South,"(40.7622099, -73.9818807495)"
12193,Free,LinkNYC - Citybridge,230 2 AVENUE,40.73251879,-73.98469437,988491.8875,206153.2971,Outdoor Kiosk,New York,Manhattan,MN21,Gramercy,"(40.7325187897, -73.9846943705)"
10848,Free,Transit Wireless,Canal St (1),40.722854,-74.006277,982510.1048,202631.8054,Subway Station,New York,Manhattan,MN24,SoHo-TriBeCa-Civic Center-Little Italy,"(40.7228539996, -74.0062770002)"
10335,Free,LinkNYC - Citybridge,3121 CHURCH AVENUE,40.650962,-73.947834,998725.2703,176443.7013,Outdoor Kiosk,Brooklyn,Brooklyn,BK95,Erasmus,"(40.6509619998, -73.9478340004)"
12277,Free,LinkNYC - Citybridge,731 4 AVENUE,40.660871,-73.997387,984974.9602,180049.5261,Outdoor Kiosk,Brooklyn,Brooklyn,BK32,Sunset Park West,"(40.6608710001, -73.9973869996)"
12703,Free,LinkNYC - Citybridge,335 Lexington Ave,40.74950281,-73.9771946,990568.8046,212341.5668,Outdoor Kiosk,New York,Manhattan,MN20,Murray Hill-Kips Bay,"(40.74950281, -73.9771946004)"
12586,Free,LinkNYC - Citybridge,80-02 KEW GARDENS ROAD,40.713983,-73.830838,1031145.512,199445.047,Outdoor Kiosk,Queens,Queens,QN60,Kew Gardens,"(40.7139829999, -73.8308380002)"
10688,Free,LinkNYC - Citybridge,2298 BROADWAY,40.78622273,-73.97799347,990344.0971,225719.7947,Outdoor Kiosk,New York,Manhattan,MN12,Upper West Side,"(40.7862227298, -73.9779934695)"
10822,Free,Transit Wireless,Lexington Ave - 53rd St,40.757552,-73.969055,992823.0478,215274.8392,Subway Station,New York,Manhattan,MN19,Turtle Bay-East Midtown,"(40.7575519997, -73.969055)"
10729,Free,LinkNYC - Citybridge,15 EAST 29 STREET,40.744742,-73.985367,988304.7274,210606.5674,Outdoor Kiosk,New York,Manhattan,MN17,Midtown-Midtown South,"(40.7447420003, -73.9853669995)"
9857,Free,Downtown Brooklyn,20 Lafayette Ave.,40.686371,-73.978541,990201.3857,189340.622,Outdoor,Brooklyn,Brooklyn,BK68,Fort Greene,"(40.6863709996, -73.9785409997)"
11312,Free,Harlem,pole 58: LeWS1N129,40.810532,-73.943671,999843.0551,234580.7576,Outdoor,New York,Manhattan,MN03,Central Harlem North-Polo Grounds,"(40.8105319999, -73.9436709996)"
12858,Free,LinkNYC - Citybridge,206 EAST 86 STREET,40.77860514,-73.95371545,997068.686,222947.0689,Outdoor Kiosk,New York,Manhattan,MN32,Yorkville,"(40.7786051397, -73.9537154496)"
12762,Free,LinkNYC - Citybridge,764 AMSTERDAM AVENUE,40.795005,-73.96981,992609.1788,228920.1531,Outdoor Kiosk,New York,Manhattan,MN12,Upper West Side,"(40.7950050001, -73.9698099995)"
11814,Free,LinkNYC - Citybridge,1391 JEROME AVENUE,40.840248,-73.918194,1006885.513,245412.9364,Outdoor Kiosk,Bronx,Bronx,BX26,Highbridge,"(40.8402480002, -73.9181940004)"
12395,Free,Transit Wireless,"Bergen St (F,G)",40.686145,-73.990862,986784.3187,189257.6872,Subway Station,Brooklyn,Brooklyn,BK38,DUMBO-Vinegar Hill-Downtown Brooklyn-Boerum Hill,"(40.6861450003, -73.9908620001)"
12449,Free,LinkNYC - Citybridge,219 WEST 100 STREET,40.797148,-73.96963,992658.7473,229700.9396,Outdoor Kiosk,New York,Manhattan,MN12,Upper West Side,"(40.797148, -73.9696300005)"
12042,Free,LinkNYC - Citybridge,145 ORCHARD STREET,40.72048554,-73.98908323,987276.0809,201769.0289,Outdoor Kiosk,New York,Manhattan,MN27,Chinatown,"(40.72048554, -73.98908323)"
10592,Limited Free,SPECTRUM,Park Perimeter,40.68301,-73.78482,1043930.434,188188.685,Outdoor TWC Aerial,Queens,Queens,QN76,Baisley Park,"(40.6830100001, -73.7848199995)"
11771,Free,LinkNYC - Citybridge,1001 1 AVENUE,40.75694399,-73.96407038,994204.0851,215053.8485,Outdoor Kiosk,New York,Manhattan,MN19,Turtle Bay-East Midtown,"(40.7569439897, -73.9640703796)"
11279,Free,LinkNYC - Citybridge,376 AMSTERDAM AVE,40.78240982,-73.97899987,990065.7354,224330.5534,Outdoor Kiosk,New York,Manhattan,MN12,Upper West Side,"(40.7824098201, -73.9789998702)"
11979,Free,LinkNYC - Citybridge,22-25 JACKSON AVENUE,40.74541772,-73.94693708,998953.3059,210856.8684,Outdoor Kiosk,Queens,Queens,QN31,Hunters Point-Sunnyside-West Maspeth,"(40.7454177202, -73.9469370802)"
11252,Free,LinkNYC - Citybridge,2570 ADAM CLAYTON POWELL JR BOULEVARD,40.8240811,-73.93750775,1001545.65,239518.3383,Outdoor Kiosk,New York,Manhattan,MN03,Central Harlem North-Polo Grounds,"(40.8240811002, -73.9375077506)"
12204,Free,LinkNYC - Citybridge,200 WEST 14 STREET,40.73857046,-73.99993241,984268.7306,208357.7405,Outdoor Kiosk,New York,Manhattan,MN23,West Village,"(40.7385704602, -73.9999324099)"
11964,Free,LinkNYC - Citybridge,63-14 QUEENS BOULEVARD,40.740962,-73.901886,1011438.41,209244.2804,Outdoor Kiosk,Queens,Queens,QN63,Woodside,"(40.7409619997, -73.9018859995)"
11740,Free,LinkNYC - Citybridge,96 5 AVENUE,40.73663894,-73.99328247,986111.6186,207654.0982,Outdoor Kiosk,New York,Manhattan,MN13,Hudson Yards-Chelsea-Flatiron-Union Square,"(40.7366389404, -73.9932824699)"
10016,Free,NYPL,104 WEST 136 STREET,40.81482041,-73.94119767,1000526.675,236143.6278,Library,New York,Manhattan,MN03,Central Harlem North-Polo Grounds,"(40.8148204092, -73.941197673)"
12597,Free,NYPL,610 EAST 186 STREET,40.85434691,-73.88788943,1015264.133,250558.9779,Library,Bronx,Bronx,BX06,Belmont,"(40.8543469054, -73.8878894289)"
10072,Free,NYPL,155 EAST 173 STREET,40.84400191,-73.91008714,1009127.255,246782.8251,Library,Bronx,Bronx,BX41,Mount Hope,"(40.8440019118, -73.9100871445)"
10746,Limited Free,ALTICEUSA,BALCOM AV 3/P/E/O SCHLEY AV,40.821068,-73.82621,1032351.093,238462.1025,Outdoor,Bronx,Bronx,BX52,Schuylerville-Throgs Neck-Edgewater Park,"(40.8210679998, -73.8262099995)"
11561,Limited Free,SPECTRUM,Beach 116 - Rear of Comfort Station,40.577878,-73.835788,1029866.219,149855.7341,Outdoor,Queens,Queens,QN10,Breezy Point-Belle Harbor-Rockaway Park-Broad Channel,"(40.5778779999, -73.8357879999)"
12782,Free,LinkNYC - Citybridge,175 WEST 107 STREET,40.80104973,-73.96493891,993957.0321,231122.961,Outdoor Kiosk,New York,Manhattan,MN09,Morningside Heights,"(40.80104973, -73.9649389104)"
9659,Free,LinkNYC - Citybridge,4201 3 AVENUE,40.84647676,-73.89639316,1012915.064,247688.69,Outdoor Kiosk,Bronx,Bronx,BX01,Claremont-Bathgate,"(40.8464767598, -73.8963931604)"
9795,Free,LinkNYC - Citybridge,866 2 AVENUE,40.752476,-73.970116,992529.7377,213425.3855,Outdoor Kiosk,New York,Manhattan,MN19,Turtle Bay-East Midtown,"(40.7524759996, -73.9701160001)"
12361,Free,Transit Wireless,"Lawrence St (M,R)",40.69218,-73.985942,988148.4712,191456.5945,Subway Station,Brooklyn,Brooklyn,BK38,DUMBO-Vinegar Hill-Downtown Brooklyn-Boerum Hill,"(40.6921799997, -73.9859419996)"
10761,Limited Free,ALTICEUSA,HOLLAND AV 1 P/S/O MAGENTA AV,40.874779,-73.865005,1021583.377,258012.1057,Outdoor,Bronx,Bronx,BX44,Williamsbridge-Olinville,"(40.8747789997, -73.8650050004)"
10437,Limited Free,SPECTRUM,Parking lot on Union Turn Pike at 196th Place,40.73121,-73.774084,1046862.781,205756.8336,Outdoor TWC Aerial,Queens,Queens,QN41,Fresh Meadows-Utopia,"(40.73121, -73.7740839999)"
11781,Free,LinkNYC - Citybridge,184 11 AVENUE,40.748842,-74.0067043,982392.3882,212100.0611,Outdoor Kiosk,New York,Manhattan,MN13,Hudson Yards-Chelsea-Flatiron-Union Square,"(40.7488420001, -74.0067042995)"
11338,Free,Transit Wireless,72nd Street - Broadway,40.778453,-73.98197,989243.49,222888.7665,Subway Station,New York,Manhattan,MN14,Lincoln Square,"(40.7784529998, -73.9819700004)"
11647,Limited Free,SPECTRUM,North East side of Park,40.695132,-73.820841,1033930.949,192582.5877,Outdoor TWC Aerial,Queens,Queens,QN54,Richmond Hill,"(40.6951320003, -73.8208410002)"
11046,Free,LinkNYC - Citybridge,202 AVENUE OF PUERTO RICO,40.70892202,-73.94338965,999944.863,197560.9694,Outdoor Kiosk,Brooklyn,Brooklyn,BK78,Bushwick South,"(40.7089220198, -73.9433896499)"
12624,Free,LinkNYC - Citybridge,979 FULTON STREET,40.682932,-73.963959,994246.0364,188089.0222,Outdoor Kiosk,Brooklyn,Brooklyn,BK69,Clinton Hill,"(40.6829320003, -73.9639590003)"
12350,Free,Transit Wireless,"Canal St (J,M,N,Q,R,Z,6)",40.718803,-74.000193,984196.4998,201155.8395,Subway Station,New York,Manhattan,MN24,SoHo-TriBeCa-Civic Center-Little Italy,"(40.7188030002, -74.0001930005)"
12170,Free,LinkNYC - Citybridge,439 PARK AVENUE SOUTH,40.74440678,-73.98313231,988923.9726,210484.5463,Outdoor Kiosk,New York,Manhattan,MN20,Murray Hill-Kips Bay,"(40.7444067774, -73.9831323066)"
11509,Limited Free,SPECTRUM,Comfort station - Front right,40.639231,-74.031933,975387.5207,172167.0826,Outdoor,Brooklyn,Brooklyn,BK31,Bay Ridge,"(40.639231, -74.0319329997)"
9874,Free,Downtown Brooklyn,333 Jay St.,40.6940105,-73.9867065,987936.3637,192123.4665,Outdoor,Brooklyn,Brooklyn,BK38,DUMBO-Vinegar Hill-Downtown Brooklyn-Boerum Hill,"(40.6940105, -73.9867065005)"
12229,Free,LinkNYC - Citybridge,201 3 AVENUE,40.737597,-73.98389,988714.475,208003.4886,Outdoor Kiosk,New York,Manhattan,MN21,Gramercy,"(40.7375969997, -73.9838899999)"
11996,Free,LinkNYC - Citybridge,1580 ST. NICHOLAS AVE,40.85435846,-73.92992035,1003636.75,250551.0961,Outdoor Kiosk,New York,Manhattan,MN35,Washington Heights North,"(40.8543584601, -73.9299203504)"
9906,Free,Downtown Brooklyn,160 Schermerhorn St.,40.689319,-73.987162,987810.3016,190414.1966,Outdoor,Brooklyn,Brooklyn,BK38,DUMBO-Vinegar Hill-Downtown Brooklyn-Boerum Hill,"(40.6893190003, -73.9871619999)"
10133,Free,Harlem,2321ACP,40.815936,-73.942971,1000035.548,236549.753,Outdoor,New York,Manhattan,MN03,Central Harlem North-Polo Grounds,"(40.8159360002, -73.9429710003)"
11154,Free,LinkNYC - Citybridge,250 BROOK AVENUE,40.80775593,-73.91900611,1006671.75,233574.6891,Outdoor Kiosk,Bronx,Bronx,BX39,Mott Haven-Port Morris,"(40.8077559301, -73.9190061102)"
12532,Free,LinkNYC - Citybridge,969 3 AVENUE,40.76064429,-73.96710117,993363.9165,216401.6588,Outdoor Kiosk,New York,Manhattan,MN19,Turtle Bay-East Midtown,"(40.7606442899, -73.9671011703)"
10216,Limited Free,SPECTRUM,Game Room,40.672413,-74.004303,983056.3669,184254.621,Indoor,Brooklyn,Brooklyn,BK33,Carroll Gardens-Columbia Street-Red Hook,"(40.6724129997, -74.004303)"
9989,Free,BPL,203 ARLINGTON AVENUE,40.68068711,-73.88723951,1015525.371,187289.216,Library,Brooklyn,Brooklyn,BK83,Cypress Hills-City Line,"(40.680687107, -73.887239509)"
10002,Free,QPL,196-36 NORTHERN BOULEVARD,40.75754568,-73.78430296,1044006.967,215344.5943,Library,Flushing,Queens,QN48,Auburndale,"(40.7575456796, -73.7843029637)"
10101,Free,Manhattan Down Alliance,"13 Hanover Square, New York, NY 10004, USA",40.7041016,-74.009201,981698.8962,195799.8083,Outdoor,New York,Manhattan,MN25,Battery Park City-Lower Manhattan,"(40.7041016002, -74.0092009996)"
10452,Limited Free,SPECTRUM,"2nd Floor, South Lobby",40.771442,-73.988109,987543.6132,220334.1339,Indoor,New York,Manhattan,MN14,Lincoln Square,"(40.7714420004, -73.9881089996)"
9631,Free,LinkNYC - Citybridge,250 CHURCH STREET,40.71780497,-74.00581491,982638.0675,200792.2799,Outdoor Kiosk,New York,Manhattan,MN24,SoHo-TriBeCa-Civic Center-Little Italy,"(40.7178049696, -74.0058149101)"
11755,Free,LinkNYC - Citybridge,2848 BROADWAY,40.80439875,-73.96632817,993571.9318,232342.9757,Outdoor Kiosk,New York,Manhattan,MN09,Morningside Heights,"(40.80439875, -73.9663281704)"
11973,Free,LinkNYC - Citybridge,1381 Amsterdam Ave,40.81453869,-73.95528026,996628.6222,236038.6841,Outdoor Kiosk,New York,Manhattan,MN06,Manhattanville,"(40.8145386902, -73.9552802595)"
12316,Free,LinkNYC - Citybridge,34-02 QUEENS BOULEVARD,40.744278,-73.930399,1003536.203,210444.8406,Outdoor Kiosk,Queens,Queens,QN31,Hunters Point-Sunnyside-West Maspeth,"(40.7442780003, -73.930399)"
12219,Free,LinkNYC - Citybridge,165 3 AVENUE,40.73449153,-73.98616158,988085.1432,206871.9607,Outdoor Kiosk,New York,Manhattan,MN21,Gramercy,"(40.7344915302, -73.9861615804)"
12185,Free,LinkNYC - Citybridge,119 5 AVENUE,40.73916604,-73.99119855,986689.0397,208574.8516,Outdoor Kiosk,New York,Manhattan,MN13,Hudson Yards-Chelsea-Flatiron-Union Square,"(40.7391660401, -73.9911985495)"
12522,Free,LinkNYC - Citybridge,906 3Rd Ave,40.758993,-73.968727,992913.73,215799.8749,Outdoor Kiosk,New York,Manhattan,MN19,Turtle Bay-East Midtown,"(40.758993, -73.9687269997)"
12933,Free,LinkNYC - Citybridge,888 8 AVENUE,40.76399635,-73.98471931,988482.9751,217621.5822,Outdoor Kiosk,New York,Manhattan,MN17,Midtown-Midtown South,"(40.76399635, -73.9847193098)"
12883,Free,LinkNYC - Citybridge,60 EAST KINGSBRIDGE ROAD,40.86658827,-73.89565372,1013110.917,255016.3234,Outdoor Kiosk,Bronx,Bronx,BX05,Bedford Park-Fordham North,"(40.8665882698, -73.8956537199)"
12047,Free,LinkNYC - Citybridge,20 EAST 60 STREET,40.764097,-73.970823,992332.4441,217659.2291,Outdoor Kiosk,New York,Manhattan,MN40,Upper East Side-Carnegie Hill,"(40.7640969998, -73.9708230005)"
11708,Limited Free,ALTICEUSA,ROOF OF ABE STARK ICE RINK-LEFT SIDE FRONT,40.572664,-73.986039,988128.5116,147913.6973,Outdoor,Brooklyn,Brooklyn,BK21,Seagate-Coney Island,"(40.5726640003, -73.9860389995)"
10789,Free,Transit Wireless,77 St (6),40.77362,-73.959874,995363.8836,221129.9738,Subway Station,New York,Manhattan,MN40,Upper East Side-Carnegie Hill,"(40.7736199998, -73.959874)"
12668,Free,LinkNYC - Citybridge,790 8 AVENUE,40.761094,-73.986828,987898.996,216564.0659,Outdoor Kiosk,New York,Manhattan,MN17,Midtown-Midtown South,"(40.7610940003, -73.9868280003)"
12322,Free,LinkNYC - Citybridge,50-01 NORTHERN BOULEVARD,40.75336987,-73.91232033,1008542.425,213761.7969,Outdoor Kiosk,Queens,Queens,QN70,Astoria,"(40.7533698704, -73.91232033)"
10669,Free,LinkNYC - Citybridge,2163 BROADWAY,40.781984,-73.981184,989460.9,224175.2751,Outdoor Kiosk,New York,Manhattan,MN12,Upper West Side,"(40.7819839998, -73.9811840001)"
10233,Limited Free,SPECTRUM,Beach 108 -SW Caracus Bar and Beach,40.580467,-73.826272,1032507.781,150804.0685,Outdoor,Queens,Queens,QN10,Breezy Point-Belle Harbor-Rockaway Park-Broad Channel,"(40.580467, -73.8262720005)"
9644,Free,LinkNYC - Citybridge,317 BROADWAY,40.715712,-74.005126,982828.9933,200029.7352,Outdoor Kiosk,New York,Manhattan,MN24,SoHo-TriBeCa-Civic Center-Little Italy,"(40.7157119998, -74.0051260005)"
10979,Limited Free,SPECTRUM,Lobby,40.71025,-73.99798,984810.0212,198039.7277,Indoor,New York,Manhattan,MN27,Chinatown,"(40.7102499999, -73.9979799999)"
12402,Free,Transit Wireless,Bedford-Nostrand Avs (G),40.689627,-73.953522,997139.4631,190529.5685,Subway Station,Brooklyn,Brooklyn,BK75,Bedford,"(40.6896269998, -73.9535219995)"
12646,Free,LinkNYC - Citybridge,101 LAFAYETTE STREET,40.717828,-74.000962,983983.3273,200800.6185,Outdoor Kiosk,New York,Manhattan,MN24,SoHo-TriBeCa-Civic Center-Little Italy,"(40.7178279998, -74.0009619996)"
12463,Free,LinkNYC - Citybridge,249 WEST 107 STREET,40.802126,-73.967493,993249.7599,231514.8113,Outdoor Kiosk,New York,Manhattan,MN09,Morningside Heights,"(40.8021260003, -73.9674930004)"
12890,Free,LinkNYC - Citybridge,551 WEST 138 STREET,40.821918,-73.95331,997172.5657,238727.5167,Outdoor Kiosk,New York,Manhattan,MN04,Hamilton Heights,"(40.8219179997, -73.9533100001)"
10908,Free,LinkNYC - Citybridge,35-01 BROADWAY,40.76047267,-73.92201908,1005852.998,216347.0362,Outdoor Kiosk,Queens,Queens,QN70,Astoria,"(40.7604726697, -73.9220190799)"
12118,Free,LinkNYC - Citybridge,1701 BROADWAY,40.76397808,-73.98262883,989062.0701,217615.0337,Outdoor Kiosk,New York,Manhattan,MN17,Midtown-Midtown South,"(40.7639780797, -73.9826288296)"
10743,Limited Free,ALTICEUSA,Crotona Park-ON SPAN BETWEEN PS 4 & PS 171,40.881477,-73.897951,1012469.198,260440.1245,Outdoor,Bronx,Bronx,BX28,Van Cortlandt Village,"(40.8814770003, -73.8979510005)"
10172,Free,LinkNYC - Citybridge,119 GRAHAM AVENUE,40.705768,-73.94303,1000045.321,196411.9301,Outdoor Kiosk,Brooklyn,Brooklyn,BK90,East Williamsburg,"(40.7057680002, -73.9430299995)"
12772,Free,LinkNYC - Citybridge,868 AMSTERDAM AVE,40.79802733,-73.96760332,993219.7695,230021.5111,Outdoor Kiosk,New York,Manhattan,MN12,Upper West Side,"(40.79802733, -73.9676033202)"
11717,Limited Free,ALTICEUSA,SOUTH WEST CORNER OF INDIAN LAKE HOUSE ROOFTOP,40.838058,-73.893478,1013725.335,244622.3897,Outdoor,Bronx,Bronx,BX99,park-cemetery-etc-Bronx,"(40.8380580001, -73.8934780004)"
11575,Limited Free,SPECTRUM,Bunker Rm 3 (AKA Rm B5),40.687191,-73.769559,1048159.074,189722.7056,Indoor,Queens,Queens,QN08,St. Albans,"(40.687191, -73.7695589996)"
9757,Free,LinkNYC - Citybridge,50 VARICK STREET,40.72098349,-74.00648828,982451.4905,201950.3255,Outdoor Kiosk,New York,Manhattan,MN24,SoHo-TriBeCa-Civic Center-Little Italy,"(40.7209834901, -74.0064882805)"
9747,Free,NYCHA,138 Cumberland Walk,40.694382,-73.9746142,991289.5886,192259.5552,Outdoor,Brooklyn,Brooklyn,BK68,Fort Greene,"(40.6943819998, -73.9746142004)"
10565,Free,AT&T,Near the Picnic House,40.6509,-73.9683,993046.2757,176418.3946,Outdoor,Brooklyn,Brooklyn,BK99,park-cemetery-etc-Brooklyn,"(40.6509000002, -73.9682999997)"
11776,Free,LinkNYC - Citybridge,590 AMSTERDAM AVENUE,40.78944465,-73.9738668,991486.5134,226893.9646,Outdoor Kiosk,New York,Manhattan,MN12,Upper West Side,"(40.78944465, -73.9738667995)"
12901,Free,LinkNYC - Citybridge,1941 AMSTERDAM AVENUE,40.832283,-73.942327,1000209.885,242505.6755,Outdoor Kiosk,New York,Manhattan,MN36,Washington Heights South,"(40.8322830002, -73.9423269996)"
11639,Limited Free,SPECTRUM,Back of comfort station and picnic area,40.518167,-74.189765,931488.3329,128115.981,Outdoor,Staten Island,Staten Island,SI01,Annadale-Huguenot-Prince's Bay-Eltingville,"(40.5181669997, -74.1897649997)"
11367,Free,Transit Wireless,334A IND NR 71 AV,40.721691,-73.844521,1027347.296,202246.2737,Subway Station,Queens,Queens,QN17,Forest Hills,"(40.7216909996, -73.8445210005)"
10116,Free,Manhattan Down Alliance,"111 Greenwich Street, New York, NY 10006, USA",40.7086983,-74.0130997,980618.1782,197474.6615,Outdoor,New York,Manhattan,MN25,Battery Park City-Lower Manhattan,"(40.7086982997, -74.0130997003)"
11764,Free,LinkNYC - Citybridge,655 6 AVENUE,40.74151493,-73.9939631,985922.8743,209430.5618,Outdoor Kiosk,New York,Manhattan,MN13,Hudson Yards-Chelsea-Flatiron-Union Square,"(40.7415149301, -73.9939631)"
10201,Free,NYCHA,177 Myrtle Ave,40.693859,-73.9824762,989109.4614,192068.4768,Outdoor,Brooklyn,Brooklyn,BK38,DUMBO-Vinegar Hill-Downtown Brooklyn-Boerum Hill,"(40.6938589996, -73.9824761997)"
9846,Limited Free,SPECTRUM,Comfort Station,40.720598,-73.877337,1018251.579,201833.6193,Outdoor,Queens,Queens,QN21,Middle Village,"(40.7205980001, -73.8773369995)"
11947,Free,LinkNYC - Citybridge,1591 FULTON STREET,40.67981536,-73.937627,1001550.071,186957.6416,Outdoor Kiosk,Brooklyn,Brooklyn,BK35,Stuyvesant Heights,"(40.6798153564, -73.9376270019)"
11320,Limited Free,ALTICEUSA,C/O MIDDLETOWN RD /DWIGHT PL,40.846606,-73.823952,1032957.355,247767.7699,Outdoor,Bronx,Bronx,BX10,Pelham Bay-Country Club-City Island,"(40.8466060004, -73.8239519999)"
11786,Free,LinkNYC - Citybridge,1187 1 AVENUE,40.76292088,-73.95971503,995409.707,217231.9501,Outdoor Kiosk,New York,Manhattan,MN31,Lenox Hill-Roosevelt Island,"(40.7629208804, -73.9597150298)"
9925,Free,NYPL,321 EAST 140 STREET,40.81159621,-73.92436634,1005186.656,234972.5134,Library,Bronx,Bronx,BX39,Mott Haven-Port Morris,"(40.8115962129, -73.9243663402)"
10142,Free,Harlem,1851 Adam Clayton Powell Jr Blvd_THAL,40.801137,-73.953778,997047.0308,231156.1903,Outdoor,New York,Manhattan,MN11,Central Harlem South,"(40.8011370003, -73.9537779996)"
11346,Free,Transit Wireless,96th Street - Central Park West,40.791644,-73.964694,994026.2193,227696.1542,Subway Station,New York,Manhattan,MN99,park-cemetery-etc-Manhattan,"(40.7916440001, -73.964694)"
11095,Free,LinkNYC - Citybridge,200 EAST 138 STREET,40.81244091,-73.92925029,1003834.449,235279.1371,Outdoor Kiosk,Bronx,Bronx,BX39,Mott Haven-Port Morris,"(40.8124409104, -73.9292502903)"
11857,Free,LinkNYC - Citybridge,371 2 AVENUE,40.73675561,-73.98186157,989276.6661,207697.0538,Outdoor Kiosk,New York,Manhattan,MN21,Gramercy,"(40.7367556104, -73.9818615695)"
12506,Free,LinkNYC - Citybridge,105 EAST 165 STREET,40.831467,-73.921747,1005905.265,242212.7952,Outdoor Kiosk,Bronx,Bronx,BX63,West Concourse,"(40.8314669998, -73.9217469998)"
11622,Limited Free,SPECTRUM,CRC Rm,40.729564,-74.005462,982736.1638,205076.4514,Indoor,New York,Manhattan,MN23,West Village,"(40.729564, -74.0054619998)"
10944,Free,Harlem,Pole 85 - 137NS3EACP,40.815803,-73.940812,1000633.189,236501.6927,Outdoor,New York,Manhattan,MN03,Central Harlem North-Polo Grounds,"(40.8158030001, -73.9408120003)"
11157,Free,LinkNYC - Citybridge,211 ST ANN'S AVENUE,40.80628664,-73.91795518,1006963.182,233039.6465,Outdoor Kiosk,Bronx,Bronx,BX39,Mott Haven-Port Morris,"(40.8062866423, -73.9179551832)"
10597,Limited Free,SPECTRUM,Park Perimeter,40.67814,-73.78711,1043299.613,186412.8569,Outdoor TWC Aerial,Queens,Queens,QN76,Baisley Park,"(40.6781400002, -73.7871099994)"
10341,Free,Fiberless,Building 110 Rooftop,40.69275,-74.0162,979757.5621,191664.3651,Outdoor,New York,Manhattan,MN99,Governors Island,"(40.6927500003, -74.0162)"
12133,Free,LinkNYC - Citybridge,101 WEST 86 STREET,40.78665384,-73.9723114,991917.5385,225877.3091,Outdoor Kiosk,New York,Manhattan,MN12,Upper West Side,"(40.7866538399, -73.9723114005)"
11035,Free,LinkNYC - Citybridge,21 EAST 31 STREET,40.74598598,-73.98449219,988547.0511,211059.8299,Outdoor Kiosk,New York,Manhattan,MN17,Midtown-Midtown South,"(40.745985978, -73.9844921943)"
11414,Free,Transit Wireless,42nd Street ΓÇô Port Authority,40.757308,-73.989735,987093.8411,215184.5946,Subway Station,New York,Manhattan,MN17,Midtown-Midtown South,"(40.7573080004, -73.9897349997)"
11698,Limited Free,ALTICEUSA,ROOF OF CONEY ISLAND BEACH SHOP-REAR,40.57341,-73.980344,989710.5809,148185.787,Outdoor,Brooklyn,Brooklyn,BK21,Seagate-Coney Island,"(40.57341, -73.9803439997)"
